Reference,London Borough Name,Attendant Location,Severity,Number Of Casualties,Number Of Vehicles,Date,Day,Time,Highway,Road Class 1,Road Number 1,Road Type,Speed Limit,Junction Detail,Junction Control,Road Class 2,Road Number 2,Pedestrian Crossing,Light Condition Band,Weather,Road Surface,Special Conditions,Carriage Way Hazard,Easting,Northing,Longitude,Latitude,Ward Code,Ward Name,Spatial Accuracy,Location,Socrata ID,Last Uploaded,Organisation URI
0109CW12302,CAMDEN,AVENUE ROAD J/W ACACIA ROAD,3 Slight,2,1,31/10/2009 01:20:00 AM,Saturday ,1.20,3 Bor,B,525,6 Single Cwy,2 30 MPH,3 T/Stag Jun,4 Give Way/Uncontrolled,C,0,1 Zebra,2 Dark,2 Raining,2 Road-Wet,0 None,0 None,527140,183690,-0.168219,51.537813,,,Unknown,"(51.537813, -0.168219)",30794,04/11/2016 10:29:03 AM,http://opendatacommunities.org/id/london-borough-council/camden
0112EK40673,CAMDEN,PRINCE ALBERT ROAD J/W ST MARK'S SQUARE,3 Slight,1,2,08/12/2012 09:30:00 PM,Saturday ,21.30,3 Bor,A,5205,6 Single Cwy,2 30 MPH,3 T/Stag Jun,2 Auto Sig,C,0,5 Pedn Phase At Ats,2 Dark,1 Fine,2 Road-Wet,0 None,0 None,528210,183680,-0.152804,51.537481,,,Unknown,"(51.537481, -0.152804)",28296,04/11/2016 10:29:01 AM,http://opendatacommunities.org/id/london-borough-council/camden
0105CP00229,CAMDEN,HIGH HOLBORN J/W GRAY'S INN ROAD,3 Slight,1,1,30/09/2005 10:45:00 AM,Friday   ,10.45,3 Bor,A,40,6 Single Cwy,2 30 MPH,3 T/Stag Jun,2 Auto Sig,A,5200,5 Pedn Phase At Ats,1 Daylight,8 Other,2 Road-Wet,0 None,0 None,531160,181600,-0.111067,51.518112,,,Unknown,"(51.518112, -0.111067)",34586,04/11/2016 10:29:06 AM,http://opendatacommunities.org/id/london-borough-council/camden
0105CP00241,CAMDEN,FARRINGDON ROAD JW CHARTERHOUSE STREET,3 Slight,1,2,24/10/2005 08:50:00 AM,Monday   ,8.50,1 TLRN,A,201,6 Single Cwy,2 30 MPH,6 Crossroads,2 Auto Sig,B,500,5 Pedn Phase At Ats,1 Daylight,2 Raining,2 Road-Wet,0 None,0 None,531540,181650,-0.105575,51.518473,,,Unknown,"(51.518473, -0.105575)",34585,04/11/2016 10:29:06 AM,http://opendatacommunities.org/id/london-borough-council/camden
0105EO40873,CAMDEN,FINCHLEY RD J/W CANFILED RD,3 Slight,1,2,17/08/2005 11:40:00 PM,Wednesday,23.40,1 TLRN,A,41,6 Single Cwy,2 30 MPH,3 T/Stag Jun,2 Auto Sig,C,0,5 Pedn Phase At Ats,2 Dark,1 Fine,1 Road-Dry,0 None,0 None,526330,184670,-0.179541,51.546802,E05000144,Swiss Cottage,Unknown,"(51.546802, -0.179541)",34063,04/11/2016 10:29:06 AM,http://opendatacommunities.org/id/london-borough-council/camden
0106CW10438,CAMDEN,CHARING CROSS ROAD J/W OXFORD STREET,2 Serious,1,2,15/04/2006 01:17:00 AM,Saturday ,1.17,3 Bor,TLRN,40,6 Single Cwy,2 30 MPH,6 Crossroads,2 Auto Sig,TLRN,40,5 Pedn Phase At Ats,2 Dark,1 Fine,1 Road-Dry,0 None,0 None,529820,181380,-0.13045,51.516444,,,Unknown,"(51.516444, -0.13045)",33636,04/11/2016 10:29:05 AM,http://opendatacommunities.org/id/london-borough-council/camden
0106CW11379,CAMDEN,CHARING CROSS ROAD J/W SUTTON ROW,2 Serious,1,1,09/10/2006 08:30:00 PM,Monday   ,20.30,3 Bor,TLRN,400,6 Single Cwy,2 30 MPH,6 Crossroads,2 Auto Sig,6 Unclassified,0,5 Pedn Phase At Ats,2 Dark,1 Fine,1 Road-Dry,0 None,0 None,529820,181320,-0.130472,51.515905,,,Unknown,"(51.515905, -0.130472)",33620,04/11/2016 10:29:05 AM,http://opendatacommunities.org/id/london-borough-council/camden
0105CP00260,CAMDEN,FARRINGDON STREET J/W CHARTERHOUSE STREET,3 Slight,1,1,09/11/2005 10:30:00 PM,Wednesday,22.30,1 TLRN,A,201,6 Single Cwy,2 30 MPH,6 Crossroads,2 Auto Sig,B,500,0 No Xing Facility In 50m,2 Dark,2 Raining,2 Road-Wet,0 None,0 None,531550,181650,-0.105431,51.518471,,,Unknown,"(51.518471, -0.105431)",34584,04/11/2016 10:29:06 AM,http://opendatacommunities.org/id/london-borough-council/camden
0105CP00271,CAMDEN,FARRINGDON ROAD J/W CHARTERHOUSE STREET,3 Slight,1,2,17/11/2005 09:50:00 AM,Thursday ,9.50,1 TLRN,A,201,6 Single Cwy,2 30 MPH,6 Crossroads,2 Auto Sig,B,400,5 Pedn Phase At Ats,1 Daylight,1 Fine,1 Road-Dry,0 None,0 None,531550,181670,-0.105424,51.518651,E05000138,Holborn and Covent Garden,Unknown,"(51.518651, -0.105424)",34583,04/11/2016 10:29:06 AM,http://opendatacommunities.org/id/london-borough-council/camden
0105CW10138,CAMDEN,SHAFTESBURY AVE J/W DYOTT ST,3 Slight,1,2,07/02/2005 01:50:00 PM,Monday   ,13.50,3 Bor,A,401,2 One-Way St,2 30 MPH,3 T/Stag Jun,2 Auto Sig,A,401,5 Pedn Phase At Ats,1 Daylight,1 Fine,1 Road-Dry,0 None,0 None,530090,181340,-0.126576,51.516023,E05000138,Holborn and Covent Garden,Unknown,"(51.516023, -0.126576)",34582,04/11/2016 10:29:06 AM,http://opendatacommunities.org/id/london-borough-council/camden
0105CW10220,CAMDEN,OXFORD STREET J/W TOTTENHAM COURT ROAD,3 Slight,1,2,16/01/2005 05:30:00 AM,Sunday   ,5.30,3 Bor,A,40,6 Single Cwy,2 30 MPH,7 Multi Jun,2 Auto Sig,A,400,0 No Xing Facility In 50m,2 Dark,1 Fine,1 Road-Dry,0 None,0 None,529820,181380,-0.13045,51.516444,,,Unknown,"(51.516444, -0.13045)",34581,04/11/2016 10:29:06 AM,http://opendatacommunities.org/id/london-borough-council/camden
0105CW10266,CAMDEN,HOWLAND STREET J/W CHARLOTTE STREET,3 Slight,1,2,20/01/2005 06:45:00 PM,Thursday ,18.45,3 Bor,C,0,2 One-Way St,2 30 MPH,6 Crossroads,2 Auto Sig,Unclassified,0,0 No Xing Facility In 50m,2 Dark,1 Fine,1 Road-Dry,0 None,0 None,529280,181910,-0.138034,51.521331,E05000129,Bloomsbury,Unknown,"(51.521331, -0.138034)",34580,04/11/2016 10:29:06 AM,http://opendatacommunities.org/id/london-borough-council/camden
0105CW10277,CAMDEN,FINCHLEY ROAD J/W BOUNDARY ROAD,2 Serious,1,1,24/02/2005 09:00:00 AM,Thursday ,9.00,1 TLRN,A,41,3 Dual Cwy,2 30 MPH,6 Crossroads,2 Auto Sig,C,0,0 No Xing Facility In 50m,1 Daylight,3 Snowing,2 Road-Wet,0 None,0 None,526600,183890,-0.175929,51.539731,E05000144,Swiss Cottage,Unknown,"(51.539731, -0.175929)",34579,04/11/2016 10:29:06 AM,http://opendatacommunities.org/id/london-borough-council/camden
0105CW10305,CAMDEN,AVENUE RD J/W ACACIA RD,3 Slight,1,2,05/03/2005 03:00:00 PM,Saturday ,15.00,3 Bor,B,525,3 Dual Cwy,2 30 MPH,3 T/Stag Jun,4 Give Way/Uncontrolled,C,0,0 No Xing Facility In 50m,1 Daylight,1 Fine,1 Road-Dry,0 None,0 None,527140,183710,-0.168212,51.537993,,,Unknown,"(51.537993, -0.168212)",34578,04/11/2016 10:29:06 AM,http://opendatacommunities.org/id/london-borough-council/camden
0105CW10407,CAMDEN,OXFORD STREET J/W TOTTENHAM COURT ROAD,3 Slight,1,1,28/03/2005 06:44:00 PM,Monday   ,18.44,3 Bor,A,40,6 Single Cwy,2 30 MPH,6 Crossroads,2 Auto Sig,A,400,5 Pedn Phase At Ats,1 Daylight,1 Fine,1 Road-Dry,0 None,0 None,529800,181380,-0.130738,51.516449,,,Unknown,"(51.516449, -0.130738)",34577,04/11/2016 10:29:06 AM,http://opendatacommunities.org/id/london-borough-council/camden
0105CW10430,CAMDEN,NFL HIGH HOLBORN 25M E J/W KINGSWAY,3 Slight,1,1,28/03/2005 06:05:00 PM,Monday   ,18.05,3 Bor,A,40,6 Single Cwy,2 30 MPH,0 No Jun In 20m,-2 Not Applicable,-2 Not Applicable,0,0 No Xing Facility In 50m,1 Daylight,1 Fine,1 Road-Dry,0 None,0 None,530530,181530,-0.120168,51.517629,E05000138,Holborn and Covent Garden,Unknown,"(51.517629, -0.120168)",34576,04/11/2016 10:29:06 AM,http://opendatacommunities.org/id/london-borough-council/camden
0105CW10565,CAMDEN,CHARING CROSS ROAD J/W NEW OXFORD STREET,3 Slight,1,2,29/04/2005 12:55:00 PM,Friday   ,12.55,3 Bor,A,40,6 Single Cwy,2 30 MPH,6 Crossroads,2 Auto Sig,A,40,5 Pedn Phase At Ats,1 Daylight,1 Fine,1 Road-Dry,0 None,0 None,529820,181370,-0.130454,51.516354,,,Unknown,"(51.516354, -0.130454)",34575,04/11/2016 10:29:06 AM,http://opendatacommunities.org/id/london-borough-council/camden
0105CW10636,CAMDEN,AVENUE ROAD J/W ACACIA ROAD,3 Slight,1,2,13/05/2005 12:36:00 PM,Friday   ,12.36,3 Bor,B,525,6 Single Cwy,2 30 MPH,3 T/Stag Jun,4 Give Way/Uncontrolled,C,0,0 No Xing Facility In 50m,1 Daylight,1 Fine,1 Road-Dry,0 None,0 None,527140,183700,-0.168216,51.537903,,,Unknown,"(51.537903, -0.168216)",34574,04/11/2016 10:29:06 AM,http://opendatacommunities.org/id/london-borough-council/camden
0105CW10775,CAMDEN,AVENUE ROAD J/W ST EDMUND'S TERRACE,3 Slight,1,2,16/05/2005 08:50:00 AM,Monday   ,8.50,3 Bor,B,525,6 Single Cwy,2 30 MPH,6 Crossroads,4 Give Way/Uncontrolled,B,525,1 Zebra,1 Daylight,1 Fine,1 Road-Dry,0 None,0 None,527380,183450,-0.164848,51.535602,,,Unknown,"(51.535602, -0.164848)",34573,04/11/2016 10:29:06 AM,http://opendatacommunities.org/id/london-borough-council/camden
0105CW10813,CAMDEN,NFL OUTER CIRCLE J/W CHESTER GATE,2 Serious,1,2,09/06/2005 08:04:00 AM,Thursday ,8.04,3 Bor,Unclassified,0,6 Single Cwy,2 30 MPH,3 T/Stag Jun,4 Give Way/Uncontrolled,Unclassified,0,0 No Xing Facility In 50m,1 Daylight,1 Fine,1 Road-Dry,0 None,0 None,528720,182600,-0.145849,51.52766,E05000142,Regent's Park,Unknown,"(51.52766, -0.145849)",34572,04/11/2016 10:29:06 AM,http://opendatacommunities.org/id/london-borough-council/camden
0105CW10823,CAMDEN,OUTER CIRCLE J/W GLOUCESTER GATE,2 Serious,1,2,26/06/2005 06:00:00 PM,Sunday   ,18.00,3 Bor,Unclassified,0,6 Single Cwy,2 30 MPH,3 T/Stag Jun,4 Give Way/Uncontrolled,Unclassified,0,0 No Xing Facility In 50m,1 Daylight,1 Fine,1 Road-Dry,0 None,0 None,528530,183430,-0.148284,51.535162,E05000142,Regent's Park,Unknown,"(51.535162, -0.148284)",34571,04/11/2016 10:29:06 AM,http://opendatacommunities.org/id/london-borough-council/camden
0105CW10832,CAMDEN,TOTTENHAM COURT ROAD J/W PERCY STREET,3 Slight,1,1,24/06/2005 08:00:00 PM,Friday   ,20.00,3 Bor,A,400,2 One-Way St,2 30 MPH,3 T/Stag Jun,4 Give Way/Uncontrolled,A,400,0 No Xing Facility In 50m,2 Dark,2 Raining,2 Road-Wet,0 None,0 None,529660,181640,-0.132659,51.518818,E05000129,Bloomsbury,Unknown,"(51.518818, -0.132659)",34570,04/11/2016 10:29:06 AM,http://opendatacommunities.org/id/london-borough-council/camden
0105CW10876,CAMDEN,RUSSELL SQUARE J/W BERNARD STREET,2 Serious,1,1,01/07/2005 07:40:00 AM,Friday   ,7.40,3 Bor,A,4200,2 One-Way St,2 30 MPH,6 Crossroads,2 Auto Sig,B,504,5 Pedn Phase At Ats,1 Daylight,1 Fine,1 Road-Dry,0 None,0 None,530130,182100,-0.125719,51.522843,E05000129,Bloomsbury,Unknown,"(51.522843, -0.125719)",34569,04/11/2016 10:29:06 AM,http://opendatacommunities.org/id/london-borough-council/camden
0105CW10937,CAMDEN,CHARING CROSS ROAD J/W ANDREW BORDE STREET,3 Slight,1,1,11/07/2005 03:40:00 PM,Monday   ,15.40,3 Bor,A,400,6 Single Cwy,2 30 MPH,6 Crossroads,2 Auto Sig,A,40,5 Pedn Phase At Ats,1 Daylight,1 Fine,1 Road-Dry,0 None,0 None,529830,181310,-0.130332,51.515813,E05000138,Holborn and Covent Garden,Unknown,"(51.515813, -0.130332)",34568,04/11/2016 10:29:06 AM,http://opendatacommunities.org/id/london-borough-council/camden
0105CW10953,CAMDEN,OXFORD STREET J/W TOTTENHAM COURT RD,3 Slight,1,1,01/07/2005 12:15:00 PM,Friday   ,12.15,3 Bor,A,40,2 One-Way St,2 30 MPH,6 Crossroads,2 Auto Sig,A,400,5 Pedn Phase At Ats,1 Daylight,1 Fine,1 Road-Dry,0 None,0 None,529820,181380,-0.13045,51.516444,,,Unknown,"(51.516444, -0.13045)",34567,04/11/2016 10:29:06 AM,http://opendatacommunities.org/id/london-borough-council/camden
0105CW11015,CAMDEN,CHARING CROSS ROAD J/W NEW OXFORD STREET,3 Slight,1,2,19/07/2005 03:53:00 PM,Tuesday  ,15.53,3 Bor,A,40,2 One-Way St,2 30 MPH,6 Crossroads,2 Auto Sig,A,40,5 Pedn Phase At Ats,1 Daylight,1 Fine,1 Road-Dry,0 None,0 None,529820,181370,-0.130454,51.516354,,,Unknown,"(51.516354, -0.130454)",34566,04/11/2016 10:29:06 AM,http://opendatacommunities.org/id/london-borough-council/camden
0105CW11024,CAMDEN,CHARING CROSS ROAD J/W OXFORD STREET,3 Slight,1,1,24/07/2005 07:15:00 PM,Sunday   ,19.15,3 Bor,A,40,2 One-Way St,2 30 MPH,6 Crossroads,2 Auto Sig,A,40,5 Pedn Phase At Ats,1 Daylight,1 Fine,2 Road-Wet,0 None,0 None,529820,181370,-0.130454,51.516354,,,Unknown,"(51.516354, -0.130454)",34565,04/11/2016 10:29:06 AM,http://opendatacommunities.org/id/london-borough-council/camden
0105CW11110,CAMDEN,FINCHLEY ROAD J/W BOUNDARY ROAD,3 Slight,1,1,02/07/2005 09:45:00 AM,Saturday ,9.45,1 TLRN,A,41,3 Dual Cwy,3 40 MPH,6 Crossroads,2 Auto Sig,A,41,5 Pedn Phase At Ats,1 Daylight,1 Fine,1 Road-Dry,0 None,0 None,526600,183860,-0.17594,51.539462,,,Unknown,"(51.539462, -0.17594)",34564,04/11/2016 10:29:06 AM,http://opendatacommunities.org/id/london-borough-council/camden
0105CW11151,CAMDEN,AVENUE ROAD J/W ST EDMUND'S TERRACE,3 Slight,1,2,10/08/2005 08:35:00 AM,Wednesday,8.35,3 Bor,B,525,3 Dual Cwy,2 30 MPH,6 Crossroads,4 Give Way/Uncontrolled,B,525,1 Zebra,1 Daylight,1 Fine,1 Road-Dry,0 None,0 None,527370,183470,-0.164984,51.535784,,,Unknown,"(51.535784, -0.164984)",34563,04/11/2016 10:29:06 AM,http://opendatacommunities.org/id/london-borough-council/camden
0105CW11152,CAMDEN,SHAFTESBURY AVENUE J/W MERCER STREET,3 Slight,1,2,20/07/2005 01:00:00 PM,Wednesday,13.00,3 Bor,A,401,6 Single Cwy,2 30 MPH,6 Crossroads,4 Give Way/Uncontrolled,Unclassified,0,1 Zebra,1 Daylight,1 Fine,1 Road-Dry,0 None,0 None,530000,181140,-0.127946,51.514246,E05000138,Holborn and Covent Garden,Unknown,"(51.514246, -0.127946)",34562,04/11/2016 10:29:06 AM,http://opendatacommunities.org/id/london-borough-council/camden
0105CW11226,CAMDEN,AVENUE ROAD J/W NORFOLK RD,3 Slight,1,2,11/09/2005 04:37:00 PM,Sunday   ,16.37,3 Bor,B,525,6 Single Cwy,2 30 MPH,3 T/Stag Jun,4 Give Way/Uncontrolled,B,525,1 Zebra,1 Daylight,1 Fine,1 Road-Dry,0 None,0 None,527050,183770,-0.169488,51.538552,,,Unknown,"(51.538552, -0.169488)",34561,04/11/2016 10:29:06 AM,http://opendatacommunities.org/id/london-borough-council/camden
0105CW11229,CAMDEN,OXFORD STREET J/W TOTTENHAM COURT RD,3 Slight,1,1,17/09/2005 09:55:00 PM,Saturday ,21.55,3 Bor,A,40,6 Single Cwy,2 30 MPH,6 Crossroads,2 Auto Sig,A,40,5 Pedn Phase At Ats,2 Dark,1 Fine,1 Road-Dry,0 None,0 None,529790,181370,-0.130886,51.516361,,,Unknown,"(51.516361, -0.130886)",34560,04/11/2016 10:29:06 AM,http://opendatacommunities.org/id/london-borough-council/camden
0105CW11230,CAMDEN,OUTER CIRCLE J/W CHESTER ROAD,3 Slight,1,2,21/08/2005 04:40:00 PM,Sunday   ,16.40,3 Bor,Unclassified,0,6 Single Cwy,2 30 MPH,3 T/Stag Jun,4 Give Way/Uncontrolled,Unclassified,0,0 No Xing Facility In 50m,1 Daylight,1 Fine,1 Road-Dry,0 None,0 None,528710,182740,-0.145942,51.52892,E05000142,Regent's Park,Unknown,"(51.52892, -0.145942)",34559,04/11/2016 10:29:06 AM,http://opendatacommunities.org/id/london-borough-council/camden
0105CW11288,CAMDEN,CHARING CROSS RD J/W OXFORD STREET,3 Slight,1,2,30/09/2005 07:25:00 AM,Friday   ,7.25,3 Bor,A,40,2 One-Way St,2 30 MPH,6 Crossroads,2 Auto Sig,A,40,5 Pedn Phase At Ats,1 Daylight,1 Fine,1 Road-Dry,0 None,0 None,529820,181370,-0.130454,51.516354,,,Unknown,"(51.516354, -0.130454)",34558,04/11/2016 10:29:06 AM,http://opendatacommunities.org/id/london-borough-council/camden
0105CW11302,CAMDEN,CAMDEN ROAD 55M SW J/W MURRAY STREET,3 Slight,1,2,05/10/2005 07:50:00 PM,Wednesday,19.50,1 TLRN,A,503,6 Single Cwy,2 30 MPH,0 No Jun In 20m,-2 Not Applicable,-2 Not Applicable,0,0 No Xing Facility In 50m,2 Dark,1 Fine,1 Road-Dry,0 None,0 None,529480,184570,-0.134175,51.54519,E05000131,Cantelowes,Unknown,"(51.54519, -0.134175)",34557,04/11/2016 10:29:06 AM,http://opendatacommunities.org/id/london-borough-council/camden
0105CW11347,CAMDEN,AVENUE ROAD J/W ACACIA ROAD,3 Slight,2,2,12/08/2005 08:32:00 AM,Friday   ,8.32,3 Bor,B,525,6 Single Cwy,2 30 MPH,3 T/Stag Jun,4 Give Way/Uncontrolled,C,0,1 Zebra,1 Daylight,1 Fine,1 Road-Dry,0 None,0 None,527150,183700,-0.168072,51.5379,,,Unknown,"(51.5379, -0.168072)",34556,04/11/2016 10:29:06 AM,http://opendatacommunities.org/id/london-borough-council/camden
0105CW11403,CAMDEN,FORDWYCH ROAD 65M SOUTH EAST J/W MILL LANE,3 Slight,1,2,17/10/2005 01:20:00 PM,Monday   ,13.20,3 Bor,C,0,6 Single Cwy,2 30 MPH,0 No Jun In 20m,-2 Not Applicable,-2 Not Applicable,0,0 No Xing Facility In 50m,1 Daylight,1 Fine,1 Road-Dry,0 None,0 None,524530,185010,-0.205365,51.550257,E05000132,Fortune Green,Unknown,"(51.550257, -0.205365)",34555,04/11/2016 10:29:06 AM,http://opendatacommunities.org/id/london-borough-council/camden
0105CW11407,CAMDEN,NFL NEW OXFORD STREET J/W BURY PLACE,3 Slight,1,1,30/08/2005 12:01:00 AM,Tuesday  ,0.01,3 Bor,A,40,2 One-Way St,2 30 MPH,3 T/Stag Jun,2 Auto Sig,A,40,5 Pedn Phase At Ats,2 Dark,1 Fine,1 Road-Dry,0 None,0 None,530310,181480,-0.123355,51.51723,E05000138,Holborn and Covent Garden,Unknown,"(51.51723, -0.123355)",34554,04/11/2016 10:29:06 AM,http://opendatacommunities.org/id/london-borough-council/camden
0105CW11438,CAMDEN,CHARING CROSS ROAD J/W TOTTENHAM COURT ROAD,3 Slight,1,2,16/10/2005 02:48:00 PM,Sunday   ,14.48,3 Bor,A,40,6 Single Cwy,2 30 MPH,7 Multi Jun,2 Auto Sig,A,400,5 Pedn Phase At Ats,1 Daylight,1 Fine,1 Road-Dry,0 None,0 None,529820,181370,-0.130454,51.516354,,,Unknown,"(51.516354, -0.130454)",34553,04/11/2016 10:29:06 AM,http://opendatacommunities.org/id/london-borough-council/camden
0105CW11521,CAMDEN,CHESTER RD J/W OUTER CIRCLE,3 Slight,1,1,24/10/2005 07:15:00 AM,Monday   ,7.15,3 Bor,Unclassified,0,6 Single Cwy,2 30 MPH,3 T/Stag Jun,4 Give Way/Uncontrolled,Unclassified,0,0 No Xing Facility In 50m,2 Dark,2 Raining,2 Road-Wet,0 None,0 None,528700,182740,-0.146086,51.528922,E05000142,Regent's Park,Unknown,"(51.528922, -0.146086)",34552,04/11/2016 10:29:06 AM,http://opendatacommunities.org/id/london-borough-council/camden
0105CW11589,CAMDEN,KILBURN HIGH ROAD J/W KILBURN PARK ROAD,3 Slight,1,2,11/10/2005 05:50:00 PM,Tuesday  ,17.50,3 Bor,A,5,6 Single Cwy,2 30 MPH,3 T/Stag Jun,4 Give Way/Uncontrolled,B,414,0 No Xing Facility In 50m,1 Daylight,1 Fine,1 Road-Dry,0 None,0 None,525660,183350,-0.189669,51.535088,,,Unknown,"(51.535088, -0.189669)",34551,04/11/2016 10:29:06 AM,http://opendatacommunities.org/id/london-borough-council/camden
0105CW11684,CAMDEN,KILBURN HIGH ROAD J/W BRONDESBURY VILLAS,3 Slight,1,2,04/11/2005 06:10:00 PM,Friday   ,18.10,3 Bor,A,5,6 Single Cwy,2 30 MPH,3 T/Stag Jun,4 Give Way/Uncontrolled,Unclassified,0,0 No Xing Facility In 50m,2 Dark,1 Fine,1 Road-Dry,0 None,0 None,525400,183640,-0.193312,51.537752,,,Unknown,"(51.537752, -0.193312)",34550,04/11/2016 10:29:06 AM,http://opendatacommunities.org/id/london-borough-council/camden
0105CW11708,CAMDEN,NFL CHARING CROSS ROAD J/W OXFORD STREET,3 Slight,1,2,11/11/2005 08:45:00 AM,Friday   ,8.45,3 Bor,A,40,2 One-Way St,2 30 MPH,6 Crossroads,2 Auto Sig,A,40,5 Pedn Phase At Ats,1 Daylight,1 Fine,1 Road-Dry,0 None,0 None,529820,181370,-0.130454,51.516354,,,Unknown,"(51.516354, -0.130454)",34549,04/11/2016 10:29:06 AM,http://opendatacommunities.org/id/london-borough-council/camden
0105CW11730,CAMDEN,CHESTER GATE J/W OUTER CIRCLE REGENTS PARK,3 Slight,1,2,23/11/2005 09:10:00 AM,Wednesday,9.10,3 Bor,Unclassified,0,2 One-Way St,2 30 MPH,0 No Jun In 20m,-2 Not Applicable,-2 Not Applicable,0,0 No Xing Facility In 50m,1 Daylight,1 Fine,1 Road-Dry,0 None,0 None,528720,182600,-0.145849,51.52766,E05000142,Regent's Park,Unknown,"(51.52766, -0.145849)",34548,04/11/2016 10:29:06 AM,http://opendatacommunities.org/id/london-borough-council/camden
0105CW11826,CAMDEN,CHARING CROSS RD J/W ANDREW BORDE ST,3 Slight,2,1,14/12/2005 02:20:00 PM,Wednesday,14.20,3 Bor,A,400,2 One-Way St,2 30 MPH,6 Crossroads,2 Auto Sig,A,40,5 Pedn Phase At Ats,1 Daylight,1 Fine,1 Road-Dry,0 None,0 None,529830,181310,-0.130332,51.515813,E05000138,Holborn and Covent Garden,Unknown,"(51.515813, -0.130332)",34547,04/11/2016 10:29:06 AM,http://opendatacommunities.org/id/london-borough-council/camden
0105CW11829,CAMDEN,OXFORD ST J/W CHARING CROSS RD,3 Slight,1,1,16/12/2005 11:03:00 PM,Friday   ,23.03,3 Bor,A,40,6 Single Cwy,2 30 MPH,6 Crossroads,2 Auto Sig,A,400,5 Pedn Phase At Ats,2 Dark,1 Fine,1 Road-Dry,0 None,0 None,529800,181370,-0.130742,51.516359,,,Unknown,"(51.516359, -0.130742)",34546,04/11/2016 10:29:06 AM,http://opendatacommunities.org/id/london-borough-council/camden
0105CW11873,CAMDEN,OXFORD ST J/W TOTTENHAM COURT RD,3 Slight,1,2,19/12/2005 05:45:00 AM,Monday   ,5.45,3 Bor,A,40,6 Single Cwy,2 30 MPH,6 Crossroads,2 Auto Sig,A,400,5 Pedn Phase At Ats,2 Dark,1 Fine,1 Road-Dry,0 None,0 None,529820,181370,-0.130454,51.516354,,,Unknown,"(51.516354, -0.130454)",34545,04/11/2016 10:29:06 AM,http://opendatacommunities.org/id/london-borough-council/camden
0105CW11891,CAMDEN,OXFORD ST J/W TOTTENHAM COURT RD,3 Slight,1,1,27/12/2005 06:00:00 PM,Tuesday  ,18.00,3 Bor,A,40,6 Single Cwy,2 30 MPH,6 Crossroads,2 Auto Sig,A,400,5 Pedn Phase At Ats,2 Dark,3 Snowing,2 Road-Wet,0 None,0 None,529790,181370,-0.130886,51.516361,,,Unknown,"(51.516361, -0.130886)",34544,04/11/2016 10:29:06 AM,http://opendatacommunities.org/id/london-borough-council/camden
0105CW11904,CAMDEN,NEW OXFORD ST 23M E FROM J/W EARNSHAW ST,3 Slight,1,1,28/12/2005 01:08:00 AM,Wednesday,1.08,3 Bor,A,40,6 Single Cwy,2 30 MPH,0 No Jun In 20m,-2 Not Applicable,-2 Not Applicable,0,0 No Xing Facility In 50m,2 Dark,2 Raining,2 Road-Wet,0 None,0 None,529940,181400,-0.128714,51.516597,E05000138,Holborn and Covent Garden,Unknown,"(51.516597, -0.128714)",34543,04/11/2016 10:29:06 AM,http://opendatacommunities.org/id/london-borough-council/camden
0105EK00181,CAMDEN,PARKWAY J/W PRINCE ALBERT ROAD,3 Slight,2,1,15/02/2005 04:12:00 AM,Tuesday  ,4.12,3 Bor,A,4201,7 Slip Rd,2 30 MPH,3 T/Stag Jun,2 Auto Sig,A,5205,5 Pedn Phase At Ats,2 Dark,1 Fine,1 Road-Dry,0 None,0 None,528630,183540,-0.146802,51.536128,E05000130,Camden Town with Primrose Hill,Unknown,"(51.536128, -0.146802)",34542,04/11/2016 10:29:06 AM,http://opendatacommunities.org/id/london-borough-council/camden
0105EK40044,CAMDEN,KILBURN HIGH ROAD J/W BRONDESBURY ROAD,3 Slight,1,1,15/02/2005 08:29:00 AM,Tuesday  ,8.29,3 Bor,A,5,3 Dual Cwy,2 30 MPH,3 T/Stag Jun,2 Auto Sig,B,451,5 Pedn Phase At Ats,1 Daylight,1 Fine,1 Road-Dry,0 None,0 None,525330,183730,-0.194289,51.538577,,,Unknown,"(51.538577, -0.194289)",34541,04/11/2016 10:29:06 AM,http://opendatacommunities.org/id/london-borough-council/camden
0105EK40045,CAMDEN,NFL TAVISTOCK SQUARE 43 M NW J/W ENDSLEIGH PLACE,3 Slight,1,1,19/02/2005 08:35:00 PM,Saturday ,20.35,3 Bor,Unclassified,0,6 Single Cwy,2 30 MPH,3 T/Stag Jun,2 Auto Sig,Unclassified,0,0 No Xing Facility In 50m,2 Dark,1 Fine,1 Road-Dry,0 None,0 None,529840,182330,-0.129812,51.524977,E05000129,Bloomsbury,Unknown,"(51.524977, -0.129812)",34540,04/11/2016 10:29:06 AM,http://opendatacommunities.org/id/london-borough-council/camden
0105EK40048,CAMDEN,HIGH HOLBORN J/W NEW OXFORD STREET,3 Slight,1,1,07/02/2005 02:18:00 PM,Monday   ,14.18,3 Bor,A,40,2 One-Way St,2 30 MPH,7 Multi Jun,2 Auto Sig,A,40,5 Pedn Phase At Ats,1 Daylight,1 Fine,1 Road-Dry,0 None,0 None,530370,181480,-0.122491,51.517216,E05000138,Holborn and Covent Garden,Unknown,"(51.517216, -0.122491)",34539,04/11/2016 10:29:06 AM,http://opendatacommunities.org/id/london-borough-council/camden
0105EK40050,CAMDEN,NFL FLAXMAN TERRACE 23 M E J/W MABLEDON PLACE,3 Slight,1,2,09/02/2005 01:10:00 PM,Wednesday,13.10,3 Bor,Unclassified,0,6 Single Cwy,2 30 MPH,6 Crossroads,4 Give Way/Uncontrolled,Unclassified,0,0 No Xing Facility In 50m,1 Daylight,1 Fine,1 Road-Dry,0 None,0 None,529960,182650,-0.127965,51.527825,E05000141,King's Cross,Unknown,"(51.527825, -0.127965)",34538,04/11/2016 10:29:06 AM,http://opendatacommunities.org/id/london-borough-council/camden
0105EK40052,CAMDEN,NFL PRINCE OF WALES ROAD 24 M E J/W HADLEY STREET,3 Slight,1,2,20/02/2005 06:30:00 PM,Sunday   ,18.30,3 Bor,C,0,6 Single Cwy,2 30 MPH,0 No Jun In 20m,-2 Not Applicable,-2 Not Applicable,0,0 No Xing Facility In 50m,2 Dark,1 Fine,1 Road-Dry,0 None,0 None,528620,184680,-0.14653,51.546375,E05000139,Kentish Town,Unknown,"(51.546375, -0.14653)",34537,04/11/2016 10:29:06 AM,http://opendatacommunities.org/id/london-borough-council/camden
0105EK40055,CAMDEN,CAMDEN ROAD J/W CAMDEN STREET,3 Slight,1,1,17/02/2005 06:55:00 PM,Thursday ,18.55,1 TLRN,A,503,6 Single Cwy,2 30 MPH,0 No Jun In 20m,-2 Not Applicable,-2 Not Applicable,0,4 Pelican Or Similar,2 Dark,8 Other,2 Road-Wet,0 None,0 None,529060,184010,-0.140434,51.540253,E05000130,Camden Town with Primrose Hill,Unknown,"(51.540253, -0.140434)",34536,04/11/2016 10:29:06 AM,http://opendatacommunities.org/id/london-borough-council/camden
0105EK40058,CAMDEN,NFL HIGHGATE WEST HILL 38M S J/W MILLFIELD LANE,3 Slight,1,2,19/02/2005 06:00:00 PM,Saturday ,18.00,3 Bor,Unclassified,0,6 Single Cwy,2 30 MPH,0 No Jun In 20m,-2 Not Applicable,-2 Not Applicable,0,8 Central Refuge,2 Dark,1 Fine,1 Road-Dry,0 None,0 None,526590,186590,-0.175103,51.563998,E05000135,Hampstead Town,Unknown,"(51.563998, -0.175103)",34535,04/11/2016 10:29:06 AM,http://opendatacommunities.org/id/london-borough-council/camden
0105EK40083,CAMDEN,NFL FINCHLEY ROAD 22 M NW J/W FAIRFAX ROAD,3 Slight,1,1,17/02/2005 11:52:00 PM,Thursday ,23.52,1 TLRN,A,41,6 Single Cwy,2 30 MPH,0 No Jun In 20m,-2 Not Applicable,-2 Not Applicable,0,4 Pelican Or Similar,2 Dark,8 Other,2 Road-Wet,0 None,0 None,526470,184500,-0.177584,51.545243,E05000144,Swiss Cottage,Unknown,"(51.545243, -0.177584)",34534,04/11/2016 10:29:06 AM,http://opendatacommunities.org/id/london-borough-council/camden
0105EK40088,CAMDEN,KENTISH TOWN ROAD J/W KELLY STREET,3 Slight,1,2,23/02/2005 09:45:00 PM,Wednesday,21.45,3 Bor,A,400,6 Single Cwy,2 30 MPH,9 Other Jun,2 Auto Sig,Unclassified,0,5 Pedn Phase At Ats,2 Dark,1 Fine,2 Road-Wet,0 None,0 None,528950,184610,-0.1418,51.54567,E05000139,Kentish Town,Unknown,"(51.54567, -0.1418)",34533,04/11/2016 10:29:06 AM,http://opendatacommunities.org/id/london-borough-council/camden
0105EK40094,CAMDEN,HIGH HOLBORN  J/W GRAY'S INN ROAD,3 Slight,1,1,22/02/2005 11:11:00 AM,Tuesday  ,11.11,3 Bor,A,40,6 Single Cwy,2 30 MPH,3 T/Stag Jun,2 Auto Sig,A,5200,0 No Xing Facility In 50m,1 Daylight,1 Fine,2 Road-Wet,0 None,0 None,531140,181600,-0.111355,51.518117,,,Unknown,"(51.518117, -0.111355)",34532,04/11/2016 10:29:06 AM,http://opendatacommunities.org/id/london-borough-council/camden
0105EK40101,CAMDEN,NFL CHALK FARM ROAD 46 M W J/W BELMONT STREET,3 Slight,1,2,25/02/2005 09:50:00 PM,Friday   ,21.50,3 Bor,A,502,6 Single Cwy,2 30 MPH,9 Other Jun,4 Give Way/Uncontrolled,Unclassified,0,0 No Xing Facility In 50m,2 Dark,1 Fine,2 Road-Wet,0 None,0 None,528330,184320,-0.150841,51.543205,E05000130,Camden Town with Primrose Hill,Unknown,"(51.543205, -0.150841)",34531,04/11/2016 10:29:06 AM,http://opendatacommunities.org/id/london-borough-council/camden
0105EK40105,CAMDEN,WEST END LANE J/W BLACKBURN ROAD,3 Slight,1,1,13/02/2005 10:04:00 AM,Sunday   ,10.04,3 Bor,B,510,6 Single Cwy,2 30 MPH,3 T/Stag Jun,4 Give Way/Uncontrolled,Unclassified,0,0 No Xing Facility In 50m,1 Daylight,1 Fine,1 Road-Dry,0 None,0 None,525520,184680,-0.191212,51.547072,E05000145,West Hampstead,Unknown,"(51.547072, -0.191212)",34530,04/11/2016 10:29:06 AM,http://opendatacommunities.org/id/london-borough-council/camden
0105EK40110,CAMDEN,ROYAL COLLEGE STREET J/W PRATT STREET,3 Slight,1,2,26/02/2005 12:00:00 PM,Saturday ,12.00,3 Bor,A,5202,6 Single Cwy,2 30 MPH,3 T/Stag Jun,4 Give Way/Uncontrolled,C,0,0 No Xing Facility In 50m,1 Daylight,1 Fine,2 Road-Wet,0 None,0 None,529350,183890,-0.136299,51.539109,E05000130,Camden Town with Primrose Hill,Unknown,"(51.539109, -0.136299)",34529,04/11/2016 10:29:06 AM,http://opendatacommunities.org/id/london-borough-council/camden
0105EK40147,CAMDEN,CAMDEN STREET J/W PRATT STREET,3 Slight,1,2,28/02/2005 07:41:00 PM,Monday   ,19.41,1 TLRN,A,400,2 One-Way St,2 30 MPH,6 Crossroads,2 Auto Sig,C,0,0 No Xing Facility In 50m,2 Dark,3 Snowing,2 Road-Wet,0 None,0 None,529220,183800,-0.138205,51.53833,E05000130,Camden Town with Primrose Hill,Unknown,"(51.53833, -0.138205)",34528,04/11/2016 10:29:06 AM,http://opendatacommunities.org/id/london-borough-council/camden
0105EO40328,CAMDEN,NFL PARKWAY J/W PRINCE ALBERT ROAD,3 Slight,1,2,15/04/2005 08:00:00 PM,Friday   ,20.00,3 Bor,A,4201,6 Single Cwy,2 30 MPH,3 T/Stag Jun,2 Auto Sig,A,4201,5 Pedn Phase At Ats,2 Dark,1 Fine,1 Road-Dry,0 None,0 None,528640,183540,-0.146658,51.536125,E05000142,Regent's Park,Unknown,"(51.536125, -0.146658)",34324,04/11/2016 10:29:06 AM,http://opendatacommunities.org/id/london-borough-council/camden
0105EK40149,CAMDEN,CROWNDALE ROAD J/W OAKLEY SQUARE,2 Serious,1,1,02/03/2005 09:30:00 AM,Wednesday,9.30,1 TLRN,B,512,6 Single Cwy,2 30 MPH,3 T/Stag Jun,2 Auto Sig,A,400,5 Pedn Phase At Ats,1 Daylight,8 Other,2 Road-Wet,0 None,0 None,529410,183460,-0.135592,51.535231,E05000143,St Pancras and Somers Town,Unknown,"(51.535231, -0.135592)",34527,04/11/2016 10:29:06 AM,http://opendatacommunities.org/id/london-borough-council/camden
0105EK40150,CAMDEN,SOUTHAMPTON ROW J/W HIGH HOLBORN,2 Serious,1,1,11/03/2005 08:40:00 PM,Friday   ,20.40,3 Bor,A,4200,6 Single Cwy,2 30 MPH,6 Crossroads,2 Auto Sig,A,40,0 No Xing Facility In 50m,2 Dark,2 Raining,2 Road-Wet,0 None,0 None,530500,181540,-0.120596,51.517726,E05000138,Holborn and Covent Garden,Unknown,"(51.517726, -0.120596)",34526,04/11/2016 10:29:06 AM,http://opendatacommunities.org/id/london-borough-council/camden
0105EK40154,CAMDEN,CAMDEN HIGH STREET J/W INVERNESS STREET,3 Slight,1,2,09/03/2005 11:50:00 AM,Wednesday,11.50,3 Bor,A,502,2 One-Way St,2 30 MPH,3 T/Stag Jun,4 Give Way/Uncontrolled,Unclassified,0,0 No Xing Facility In 50m,1 Daylight,1 Fine,1 Road-Dry,0 None,0 None,528860,183940,-0.143342,51.53967,E05000130,Camden Town with Primrose Hill,Unknown,"(51.53967, -0.143342)",34525,04/11/2016 10:29:06 AM,http://opendatacommunities.org/id/london-borough-council/camden
0105EO00001,CAMDEN,NFL CHALK FARM ROAD J/W HARMOOD STREET,3 Slight,1,2,01/01/2005 04:10:00 PM,Saturday ,16.10,3 Bor,A,502,6 Single Cwy,2 30 MPH,3 T/Stag Jun,4 Give Way/Uncontrolled,Unclassified,0,1 Zebra,2 Dark,2 Raining,2 Road-Wet,0 None,0 None,528510,184270,-0.148265,51.542715,E05000130,Camden Town with Primrose Hill,Unknown,"(51.542715, -0.148265)",34524,04/11/2016 10:29:06 AM,http://opendatacommunities.org/id/london-borough-council/camden
0105EO00003,CAMDEN,EUSTON ROAD J/W MELTON STREET,3 Slight,1,2,03/01/2005 06:24:00 AM,Monday   ,6.24,1 TLRN,A,501,3 Dual Cwy,2 30 MPH,6 Crossroads,2 Auto Sig,C,0,5 Pedn Phase At Ats,2 Dark,1 Fine,1 Road-Dry,0 None,0 None,529560,182480,-0.133791,51.526389,E05000142,Regent's Park,Unknown,"(51.526389, -0.133791)",34523,04/11/2016 10:29:06 AM,http://opendatacommunities.org/id/london-borough-council/camden
0105EO00012,CAMDEN,MILL LANE J/W FORDWYCH ROAD,3 Slight,1,2,05/01/2005 10:55:00 AM,Wednesday,10.55,3 Bor,C,0,6 Single Cwy,2 30 MPH,6 Crossroads,4 Give Way/Uncontrolled,Unclassified,0,0 No Xing Facility In 50m,1 Daylight,1 Fine,2 Road-Wet,0 None,0 None,524490,185060,-0.205924,51.550715,E05000132,Fortune Green,Unknown,"(51.550715, -0.205924)",34522,04/11/2016 10:29:06 AM,http://opendatacommunities.org/id/london-borough-council/camden
0105EO00014,CAMDEN,CAMDEN ROAD 50M NW J/W CAMDEN PARK ROAD,3 Slight,1,2,07/01/2005 08:50:00 AM,Friday   ,8.50,1 TLRN,A,503,6 Single Cwy,2 30 MPH,0 No Jun In 20m,-2 Not Applicable,-2 Not Applicable,0,0 No Xing Facility In 50m,1 Daylight,1 Fine,1 Road-Dry,0 None,0 None,529760,184900,-0.130018,51.548091,E05000131,Cantelowes,Unknown,"(51.548091, -0.130018)",34521,04/11/2016 10:29:06 AM,http://opendatacommunities.org/id/london-borough-council/camden
0105EO00017,CAMDEN,GREENFORD STREET J/W CAMDEN HIGH STREET,3 Slight,1,1,07/01/2005 09:55:00 AM,Friday   ,9.55,1 TLRN,A,502,6 Single Cwy,2 30 MPH,3 T/Stag Jun,4 Give Way/Uncontrolled,Unclassified,0,0 No Xing Facility In 50m,1 Daylight,1 Fine,1 Road-Dry,0 None,0 None,528960,183770,-0.141963,51.538119,E05000130,Camden Town with Primrose Hill,Unknown,"(51.538119, -0.141963)",34520,04/11/2016 10:29:06 AM,http://opendatacommunities.org/id/london-borough-council/camden
0105EO00019,CAMDEN,CAMDEN ROAD J/W ST PRANCRAS WAY,3 Slight,1,2,07/01/2005 08:37:00 AM,Friday   ,8.37,1 TLRN,A,503,6 Single Cwy,2 30 MPH,6 Crossroads,2 Auto Sig,A,5202,5 Pedn Phase At Ats,1 Daylight,1 Fine,1 Road-Dry,0 None,0 None,529250,184300,-0.137589,51.542816,E05000131,Cantelowes,Unknown,"(51.542816, -0.137589)",34519,04/11/2016 10:29:06 AM,http://opendatacommunities.org/id/london-borough-council/camden
0105EO00020,CAMDEN,EUSTON ROAD 24M E J/W OSNABURGH STREET,3 Slight,1,2,07/01/2005 05:10:00 PM,Friday   ,17.10,1 TLRN,A,501,3 Dual Cwy,2 30 MPH,0 No Jun In 20m,-2 Not Applicable,-2 Not Applicable,0,0 No Xing Facility In 50m,2 Dark,4 Fine/High Winds,2 Road-Wet,0 None,0 None,528920,182190,-0.143117,51.52393,E05000129,Bloomsbury,Unknown,"(51.52393, -0.143117)",34518,04/11/2016 10:29:06 AM,http://opendatacommunities.org/id/london-borough-council/camden
0105EO00021,CAMDEN,EUSTON ROAD 135M NE J/W OSNABURGH STREET,3 Slight,1,3,01/01/2005 02:50:00 AM,Saturday ,2.50,1 TLRN,A,501,3 Dual Cwy,2 30 MPH,0 No Jun In 20m,-2 Not Applicable,-2 Not Applicable,0,0 No Xing Facility In 50m,2 Dark,1 Fine,1 Road-Dry,0 None,0 None,529030,182230,-0.141518,51.524264,E05000142,Regent's Park,Unknown,"(51.524264, -0.141518)",34517,04/11/2016 10:29:06 AM,http://opendatacommunities.org/id/london-borough-council/camden
0105EO00025,CAMDEN,GORDON SQUARE J/W WOBURN  SQUARE,3 Slight,1,1,10/01/2005 09:56:00 AM,Monday   ,9.56,3 Bor,C,0,6 Single Cwy,2 30 MPH,3 T/Stag Jun,4 Give Way/Uncontrolled,Unclassified,0,0 No Xing Facility In 50m,1 Daylight,1 Fine,1 Road-Dry,0 None,0 None,529840,182210,-0.129856,51.523899,E05000129,Bloomsbury,Unknown,"(51.523899, -0.129856)",34516,04/11/2016 10:29:06 AM,http://opendatacommunities.org/id/london-borough-council/camden
0105EO00027,CAMDEN,SHAFTSBURY AVENUE J/W NEW OXFORD STREET,3 Slight,1,1,09/01/2005 03:55:00 AM,Sunday   ,3.55,3 Bor,A,401,2 One-Way St,2 30 MPH,3 T/Stag Jun,2 Auto Sig,A,40,5 Pedn Phase At Ats,2 Dark,1 Fine,1 Road-Dry,0 None,0 None,530130,181450,-0.125959,51.517002,E05000138,Holborn and Covent Garden,Unknown,"(51.517002, -0.125959)",34515,04/11/2016 10:29:06 AM,http://opendatacommunities.org/id/london-borough-council/camden
0105EO00028,CAMDEN,KENTISH TOWN ROAD J/W ROYAL COLLEGE STREET,3 Slight,1,2,09/01/2005 10:45:00 AM,Sunday   ,10.45,3 Bor,A,400,6 Single Cwy,2 30 MPH,9 Other Jun,2 Auto Sig,A,5202,5 Pedn Phase At Ats,1 Daylight,1 Fine,1 Road-Dry,0 None,0 None,528960,184530,-0.141685,51.544949,E05000130,Camden Town with Primrose Hill,Unknown,"(51.544949, -0.141685)",34514,04/11/2016 10:29:06 AM,http://opendatacommunities.org/id/london-borough-council/camden
0105EO00030,CAMDEN,HEATH STREET 50M N J/W BACK LANE,3 Slight,1,1,10/01/2005 09:50:00 PM,Monday   ,21.50,3 Bor,A,502,6 Single Cwy,2 30 MPH,0 No Jun In 20m,-2 Not Applicable,-2 Not Applicable,0,0 No Xing Facility In 50m,2 Dark,1 Fine,1 Road-Dry,0 None,0 None,526370,185880,-0.17853,51.557667,E05000135,Hampstead Town,Unknown,"(51.557667, -0.17853)",34513,04/11/2016 10:29:06 AM,http://opendatacommunities.org/id/london-borough-council/camden
0105EO00035,CAMDEN,HAWLEY ROAD J/W KENTISH TOWN ROAD,3 Slight,1,2,11/01/2005 08:53:00 AM,Tuesday  ,8.53,3 Bor,C,0,2 One-Way St,2 30 MPH,7 Multi Jun,2 Auto Sig,A,400,5 Pedn Phase At Ats,1 Daylight,1 Fine,1 Road-Dry,0 None,0 None,528950,184280,-0.14192,51.542705,E05000130,Camden Town with Primrose Hill,Unknown,"(51.542705, -0.14192)",34512,04/11/2016 10:29:06 AM,http://opendatacommunities.org/id/london-borough-council/camden
0105EO00040,CAMDEN,TAVISTOCK SQUARE J/W BEDFORD WAY,3 Slight,1,2,11/01/2005 05:29:00 PM,Tuesday  ,17.29,3 Bor,C,0,6 Single Cwy,2 30 MPH,6 Crossroads,2 Auto Sig,C,0,5 Pedn Phase At Ats,2 Dark,2 Raining,2 Road-Wet,0 None,0 None,529900,182250,-0.128977,51.524244,E05000129,Bloomsbury,Unknown,"(51.524244, -0.128977)",34511,04/11/2016 10:29:06 AM,http://opendatacommunities.org/id/london-borough-council/camden
0105EO00041,CAMDEN,HAVERSTOCK HILL J/W STEELE'S ROAD,3 Slight,1,2,12/01/2005 08:58:00 PM,Wednesday,20.58,3 Bor,A,502,6 Single Cwy,2 30 MPH,3 T/Stag Jun,4 Give Way/Uncontrolled,Unclassified,0,0 No Xing Facility In 50m,2 Dark,1 Fine,1 Road-Dry,0 None,0 None,527810,184680,-0.158205,51.546559,E05000136,Haverstock,Unknown,"(51.546559, -0.158205)",34510,04/11/2016 10:29:06 AM,http://opendatacommunities.org/id/london-borough-council/camden
0105EO00042,CAMDEN,NFL HIGH HOLBORN 73M E J/W PROCTER STREET,2 Serious,1,2,12/01/2005 12:04:00 PM,Wednesday,12.04,3 Bor,A,40,6 Single Cwy,2 30 MPH,0 No Jun In 20m,-2 Not Applicable,-2 Not Applicable,0,0 No Xing Facility In 50m,1 Daylight,1 Fine,1 Road-Dry,0 None,0 None,530670,181550,-0.118144,51.517776,E05000138,Holborn and Covent Garden,Unknown,"(51.517776, -0.118144)",34509,04/11/2016 10:29:06 AM,http://opendatacommunities.org/id/london-borough-council/camden
0105EO00047,CAMDEN,ROWNTREE CLOSE 43M S J/W IVERSON ROAD,3 Slight,1,1,19/01/2005 04:10:00 PM,Wednesday,16.10,3 Bor,Unclassified,0,6 Single Cwy,2 30 MPH,0 No Jun In 20m,-2 Not Applicable,-2 Not Applicable,0,0 No Xing Facility In 50m,1 Daylight,1 Fine,1 Road-Dry,0 None,0 None,525420,184730,-0.192636,51.547544,E05000145,West Hampstead,Unknown,"(51.547544, -0.192636)",34508,04/11/2016 10:29:06 AM,http://opendatacommunities.org/id/london-borough-council/camden
0105EO00049,CAMDEN,EUSTON ROAD 88M NE J/W EUSTON SQUARE,3 Slight,1,1,13/01/2005 09:07:00 AM,Thursday ,9.07,1 TLRN,A,501,6 Single Cwy,2 30 MPH,0 No Jun In 20m,-2 Not Applicable,-2 Not Applicable,0,0 No Xing Facility In 50m,1 Daylight,1 Fine,2 Road-Wet,0 None,0 None,529640,182520,-0.132624,51.52673,E05000142,Regent's Park,Unknown,"(51.52673, -0.132624)",34507,04/11/2016 10:29:06 AM,http://opendatacommunities.org/id/london-borough-council/camden
0105EO00050,CAMDEN,BLOOMSBURY STREET/NEW OXFORD STREET,3 Slight,1,1,13/01/2005 02:10:00 PM,Thursday ,14.10,3 Bor,A,40,2 One-Way St,2 30 MPH,6 Crossroads,2 Auto Sig,A,400,5 Pedn Phase At Ats,1 Daylight,1 Fine,1 Road-Dry,0 None,0 None,530060,181430,-0.126975,51.516839,E05000138,Holborn and Covent Garden,Unknown,"(51.516839, -0.126975)",34506,04/11/2016 10:29:06 AM,http://opendatacommunities.org/id/london-borough-council/camden
0105EO00052,CAMDEN,CAVERSHAM ROAD J/W BARTHOLOMEW ROAD,3 Slight,1,2,13/01/2005 08:00:00 AM,Thursday ,8.00,3 Bor,Unclassified,0,6 Single Cwy,2 30 MPH,6 Crossroads,4 Give Way/Uncontrolled,Unclassified,0,0 No Xing Facility In 50m,1 Daylight,1 Fine,1 Road-Dry,0 None,0 None,529400,184920,-0.1352,51.548353,E05000131,Cantelowes,Unknown,"(51.548353, -0.1352)",34505,04/11/2016 10:29:06 AM,http://opendatacommunities.org/id/london-borough-council/camden
0105EO00054,CAMDEN,HIGHGATE ROAD J/W ST ALBAN'S ROAD,3 Slight,1,2,20/01/2005 07:27:00 PM,Thursday ,19.27,3 Bor,C,0,6 Single Cwy,2 30 MPH,3 T/Stag Jun,4 Give Way/Uncontrolled,Unclassified,0,0 No Xing Facility In 50m,2 Dark,1 Fine,1 Road-Dry,0 None,0 None,528310,186280,-0.150415,51.560824,E05000137,Highgate,Unknown,"(51.560824, -0.150415)",34504,04/11/2016 10:29:06 AM,http://opendatacommunities.org/id/london-borough-council/camden
0105EO00056,CAMDEN,GRAYS INN ROAD J/W PENTONVILLE ROAD,3 Slight,1,2,15/01/2005 11:55:00 AM,Saturday ,11.55,1 TLRN,A,5200,2 One-Way St,2 30 MPH,7 Multi Jun,2 Auto Sig,A,501,5 Pedn Phase At Ats,1 Daylight,1 Fine,1 Road-Dry,0 None,0 None,530360,182970,-0.122084,51.530609,E05000141,King's Cross,Unknown,"(51.530609, -0.122084)",34503,04/11/2016 10:29:06 AM,http://opendatacommunities.org/id/london-borough-council/camden
0105EO00058,CAMDEN,HAMPSTEAD ROAD/MORNINGTON CRESCENT,3 Slight,3,4,13/01/2005 02:42:00 PM,Thursday ,14.42,1 TLRN,A,400,3 Dual Cwy,2 30 MPH,3 T/Stag Jun,4 Give Way/Uncontrolled,A,400,1 Zebra,1 Daylight,1 Fine,1 Road-Dry,0 None,0 None,529150,183160,-0.139448,51.532594,E05000142,Regent's Park,Unknown,"(51.532594, -0.139448)",34502,04/11/2016 10:29:06 AM,http://opendatacommunities.org/id/london-borough-council/camden
0105EO00066,CAMDEN,FINCHLEY ROAD/GOLDHURST TERRACE,3 Slight,1,1,18/01/2005 09:05:00 PM,Tuesday  ,21.05,1 TLRN,A,41,3 Dual Cwy,2 30 MPH,9 Other Jun,2 Auto Sig,Unclassified,0,5 Pedn Phase At Ats,2 Dark,1 Fine,1 Road-Dry,0 None,0 None,526370,184590,-0.178993,51.546074,E05000144,Swiss Cottage,Unknown,"(51.546074, -0.178993)",34501,04/11/2016 10:29:06 AM,http://opendatacommunities.org/id/london-borough-council/camden
0105EO00067,CAMDEN,FINCHLEY ROAD J/W CANFIELD GARDENS,3 Slight,1,1,19/01/2005 04:19:00 PM,Wednesday,16.19,1 TLRN,A,41,6 Single Cwy,2 30 MPH,3 T/Stag Jun,2 Auto Sig,C,0,5 Pedn Phase At Ats,1 Daylight,2 Raining,2 Road-Wet,0 None,0 None,526320,184680,-0.179681,51.546894,E05000144,Swiss Cottage,Unknown,"(51.546894, -0.179681)",34500,04/11/2016 10:29:06 AM,http://opendatacommunities.org/id/london-borough-council/camden
0105EO00071,CAMDEN,THEOBALDS ROAD/HARPUR STREET,2 Serious,1,2,05/01/2005 12:15:00 PM,Wednesday,12.15,3 Bor,A,401,6 Single Cwy,2 30 MPH,3 T/Stag Jun,4 Give Way/Uncontrolled,Unclassified,0,0 No Xing Facility In 50m,1 Daylight,1 Fine,1 Road-Dry,0 None,0 None,530630,181810,-0.118624,51.520122,E05000138,Holborn and Covent Garden,Unknown,"(51.520122, -0.118624)",34499,04/11/2016 10:29:06 AM,http://opendatacommunities.org/id/london-borough-council/camden
0105EO00073,CAMDEN,KENTISH TOWN ROAD J/W  GAISFORD STREET,3 Slight,1,2,17/01/2005 06:30:00 PM,Monday   ,18.30,3 Bor,A,400,6 Single Cwy,2 30 MPH,3 T/Stag Jun,4 Give Way/Uncontrolled,Unclassified,0,0 No Xing Facility In 50m,2 Dark,1 Fine,1 Road-Dry,0 None,0 None,528970,184860,-0.14142,51.547913,E05000139,Kentish Town,Unknown,"(51.547913, -0.14142)",34498,04/11/2016 10:29:06 AM,http://opendatacommunities.org/id/london-borough-council/camden
0105EO00075,CAMDEN,NFL HAVERSTOCK HILL 65M SE OF J/W PRINCE OF WALES ROAD,2 Serious,1,2,20/01/2005 08:03:00 AM,Thursday ,8.03,3 Bor,A,502,6 Single Cwy,2 30 MPH,0 No Jun In 20m,-2 Not Applicable,-2 Not Applicable,0,0 No Xing Facility In 50m,1 Daylight,2 Raining,2 Road-Wet,0 None,0 None,528010,184530,-0.155377,51.545165,E05000136,Haverstock,Unknown,"(51.545165, -0.155377)",34497,04/11/2016 10:29:06 AM,http://opendatacommunities.org/id/london-borough-council/camden
0105EO00079,CAMDEN,CHETWYND ROAD/ HIGH GATE ROAD,3 Slight,1,2,17/01/2005 06:40:00 PM,Monday   ,18.40,3 Bor,B,518,6 Single Cwy,2 30 MPH,3 T/Stag Jun,2 Auto Sig,C,0,5 Pedn Phase At Ats,2 Dark,1 Fine,2 Road-Wet,0 None,0 None,528580,185830,-0.146687,51.556719,E05000137,Highgate,Unknown,"(51.556719, -0.146687)",34496,04/11/2016 10:29:06 AM,http://opendatacommunities.org/id/london-borough-council/camden
0105EO00081,CAMDEN,LITHOS ROAD J/W FINCHLY ROAD,3 Slight,1,2,17/01/2005 04:10:00 PM,Monday   ,16.10,1 TLRN,Unclassified,0,6 Single Cwy,2 30 MPH,3 T/Stag Jun,4 Give Way/Uncontrolled,A,41,0 No Xing Facility In 50m,2 Dark,2 Raining,2 Road-Wet,0 None,0 None,526130,185000,-0.182305,51.549812,E05000145,West Hampstead,Unknown,"(51.549812, -0.182305)",34495,04/11/2016 10:29:06 AM,http://opendatacommunities.org/id/london-borough-council/camden
0105EO00082,CAMDEN,HAVERSTOCK HILL J/W UPPER PARK ROAD,3 Slight,1,2,17/01/2005 10:40:00 AM,Monday   ,10.40,3 Bor,A,502,6 Single Cwy,2 30 MPH,3 T/Stag Jun,4 Give Way/Uncontrolled,Unclassified,0,0 No Xing Facility In 50m,1 Daylight,1 Fine,2 Road-Wet,0 None,0 None,527510,184940,-0.162435,51.548963,E05000128,Belsize,Unknown,"(51.548963, -0.162435)",34494,04/11/2016 10:29:06 AM,http://opendatacommunities.org/id/london-borough-council/camden
0105EO00083,CAMDEN,ST PANCRAS WAY 70M N J/W GRANARY STREET,3 Slight,1,2,18/01/2005 02:28:00 PM,Tuesday  ,14.28,3 Bor,A,5202,2 One-Way St,2 30 MPH,0 No Jun In 20m,-2 Not Applicable,-2 Not Applicable,0,0 No Xing Facility In 50m,1 Daylight,1 Fine,1 Road-Dry,0 None,0 None,529580,183720,-0.133047,51.537528,E05000143,St Pancras and Somers Town,Unknown,"(51.537528, -0.133047)",34493,04/11/2016 10:29:06 AM,http://opendatacommunities.org/id/london-borough-council/camden
0105EO00084,CAMDEN,FINCHLEY ROAD J/W FORTUNE GREEN ROAD,3 Slight,1,2,17/01/2005 04:00:00 PM,Monday   ,16.00,1 TLRN,A,41,6 Single Cwy,2 30 MPH,7 Multi Jun,2 Auto Sig,B,510,5 Pedn Phase At Ats,1 Daylight,2 Raining,2 Road-Wet,0 None,0 None,525170,185850,-0.195841,51.557664,E05000132,Fortune Green,Unknown,"(51.557664, -0.195841)",34492,04/11/2016 10:29:06 AM,http://opendatacommunities.org/id/london-borough-council/camden
0105EO00085,CAMDEN,GRAY'S INN ROAD J/W ARGYLE STREET,3 Slight,3,1,15/01/2005 05:35:00 AM,Saturday ,5.35,1 TLRN,A,5200,6 Single Cwy,2 30 MPH,3 T/Stag Jun,2 Auto Sig,C,0,5 Pedn Phase At Ats,2 Dark,2 Raining,2 Road-Wet,0 None,0 None,530530,182760,-0.119713,51.528682,E05000141,King's Cross,Unknown,"(51.528682, -0.119713)",34491,04/11/2016 10:29:06 AM,http://opendatacommunities.org/id/london-borough-council/camden
0105EO00086,CAMDEN,FINCHLEY ROAD 68M NW J/W FROGNAL LANE,3 Slight,1,4,16/01/2005 03:30:00 PM,Sunday   ,15.30,1 TLRN,A,41,6 Single Cwy,2 30 MPH,0 No Jun In 20m,-2 Not Applicable,-2 Not Applicable,0,0 No Xing Facility In 50m,2 Dark,1 Fine,1 Road-Dry,0 None,0 None,525620,185380,-0.189521,51.553341,E05000132,Fortune Green,Unknown,"(51.553341, -0.189521)",34490,04/11/2016 10:29:06 AM,http://opendatacommunities.org/id/london-borough-council/camden
0105EO00087,CAMDEN,ARKWRIGHT ROAD J/W FROGNAL ROAD,3 Slight,1,1,19/01/2005 08:23:00 AM,Wednesday,8.23,3 Bor,C,0,6 Single Cwy,2 30 MPH,6 Crossroads,4 Give Way/Uncontrolled,Unclassified,0,0 No Xing Facility In 50m,1 Daylight,1 Fine,1 Road-Dry,0 None,0 None,526230,185230,-0.180781,51.551857,E05000133,Frognal and Fitzjohns,Unknown,"(51.551857, -0.180781)",34489,04/11/2016 10:29:06 AM,http://opendatacommunities.org/id/london-borough-council/camden
0105EO00089,CAMDEN,NEW OXFORD STREET J/W DYOTT STREET,3 Slight,1,1,21/01/2005 01:58:00 PM,Friday   ,13.58,3 Bor,A,40,6 Single Cwy,2 30 MPH,3 T/Stag Jun,4 Give Way/Uncontrolled,Unclassified,0,0 No Xing Facility In 50m,1 Daylight,1 Fine,1 Road-Dry,0 None,0 None,530000,181420,-0.127843,51.516762,E05000138,Holborn and Covent Garden,Unknown,"(51.516762, -0.127843)",34488,04/11/2016 10:29:06 AM,http://opendatacommunities.org/id/london-borough-council/camden
0105EO00091,CAMDEN,CAMDEN STREET/ST MARTINS CLOSE,3 Slight,1,2,21/01/2005 09:55:00 AM,Friday   ,9.55,1 TLRN,A,400,2 One-Way St,2 30 MPH,3 T/Stag Jun,4 Give Way/Uncontrolled,Unclassified,0,0 No Xing Facility In 50m,1 Daylight,1 Fine,1 Road-Dry,0 None,0 None,529200,183830,-0.138482,51.538604,E05000130,Camden Town with Primrose Hill,Unknown,"(51.538604, -0.138482)",34487,04/11/2016 10:29:06 AM,http://opendatacommunities.org/id/london-borough-council/camden
0105EO00092,CAMDEN,KINGSWAY J/W HIGH HOLBORN,3 Slight,1,1,21/01/2005 04:15:00 PM,Friday   ,16.15,3 Bor,A,4200,6 Single Cwy,2 30 MPH,6 Crossroads,2 Auto Sig,A,40,5 Pedn Phase At Ats,1 Daylight,1 Fine,1 Road-Dry,0 None,0 None,530500,181530,-0.1206,51.517636,E05000138,Holborn and Covent Garden,Unknown,"(51.517636, -0.1206)",34486,04/11/2016 10:29:06 AM,http://opendatacommunities.org/id/london-borough-council/camden
0105EO00094,CAMDEN,NFL KENTISH TOWN ROAD 55M N J/W PRINCE OF WALES ROAD,2 Serious,1,1,12/01/2005 10:55:00 AM,Wednesday,10.55,3 Bor,A,400,6 Single Cwy,2 30 MPH,0 No Jun In 20m,-2 Not Applicable,-2 Not Applicable,0,0 No Xing Facility In 50m,1 Daylight,1 Fine,1 Road-Dry,0 None,0 None,528950,184750,-0.141748,51.546929,E05000139,Kentish Town,Unknown,"(51.546929, -0.141748)",34485,04/11/2016 10:29:06 AM,http://opendatacommunities.org/id/london-borough-council/camden
0105EO00095,CAMDEN,CAMDEN ROAD/SANDALL ROAD,3 Slight,1,2,21/01/2005 09:10:00 AM,Friday   ,9.10,1 TLRN,A,503,6 Single Cwy,2 30 MPH,3 T/Stag Jun,4 Give Way/Uncontrolled,Unclassified,0,0 No Xing Facility In 50m,1 Daylight,1 Fine,1 Road-Dry,0 None,0 None,529510,184620,-0.133725,51.545632,E05000131,Cantelowes,Unknown,"(51.545632, -0.133725)",34484,04/11/2016 10:29:06 AM,http://opendatacommunities.org/id/london-borough-council/camden
0105EO00098,CAMDEN,NFL CHALK FARM ROAD 30M SE J/W HARTLAND ROAD,3 Slight,1,2,20/01/2005 10:15:00 AM,Thursday ,10.15,3 Bor,A,502,6 Single Cwy,2 30 MPH,0 No Jun In 20m,-2 Not Applicable,-2 Not Applicable,0,0 No Xing Facility In 50m,1 Daylight,2 Raining,2 Road-Wet,0 None,0 None,528550,184250,-0.147696,51.542526,E05000130,Camden Town with Primrose Hill,Unknown,"(51.542526, -0.147696)",34483,04/11/2016 10:29:06 AM,http://opendatacommunities.org/id/london-borough-council/camden
0105EO00104,CAMDEN,KENTISH TOWN ROAD/CASTLE ROAD,3 Slight,1,2,24/01/2005 09:15:00 PM,Monday   ,21.15,3 Bor,A,400,6 Single Cwy,2 30 MPH,7 Multi Jun,4 Give Way/Uncontrolled,A,400,0 No Xing Facility In 50m,2 Dark,1 Fine,2 Road-Wet,0 None,0 None,528950,184550,-0.141822,51.545131,E05000130,Camden Town with Primrose Hill,Unknown,"(51.545131, -0.141822)",34482,04/11/2016 10:29:06 AM,http://opendatacommunities.org/id/london-borough-council/camden
0105EO00105,CAMDEN,EUSTON ROAD/HAMSTEAD ROAD,3 Slight,1,1,25/01/2005 08:20:00 PM,Tuesday  ,20.20,1 TLRN,A,501,3 Dual Cwy,2 30 MPH,7 Multi Jun,2 Auto Sig,A,400,5 Pedn Phase At Ats,2 Dark,1 Fine,1 Road-Dry,0 None,0 None,529240,182330,-0.138456,51.525115,E05000142,Regent's Park,Unknown,"(51.525115, -0.138456)",34481,04/11/2016 10:29:06 AM,http://opendatacommunities.org/id/london-borough-council/camden
0105EO00107,CAMDEN,HAMPSTEAD HIGH STREET 25M NW J/W SPENCER WALK,3 Slight,1,1,25/01/2005 06:00:00 PM,Tuesday  ,18.00,3 Bor,A,502,6 Single Cwy,2 30 MPH,0 No Jun In 20m,-2 Not Applicable,-2 Not Applicable,0,1 Zebra,2 Dark,1 Fine,1 Road-Dry,0 None,0 None,526430,185710,-0.177726,51.556126,E05000135,Hampstead Town,Unknown,"(51.556126, -0.177726)",34480,04/11/2016 10:29:06 AM,http://opendatacommunities.org/id/london-borough-council/camden
0105EO00109,CAMDEN,ROSSLYN HILL 58M NW J/W HAMSTEAD HILL GARDENS,3 Slight,1,1,22/01/2005 01:40:00 PM,Saturday ,13.40,3 Bor,A,502,6 Single Cwy,2 30 MPH,0 No Jun In 20m,-2 Not Applicable,-2 Not Applicable,0,0 No Xing Facility In 50m,1 Daylight,1 Fine,1 Road-Dry,0 None,0 None,526900,185490,-0.171029,51.554043,E05000135,Hampstead Town,Unknown,"(51.554043, -0.171029)",34479,04/11/2016 10:29:06 AM,http://opendatacommunities.org/id/london-borough-council/camden
0105EO00112,CAMDEN,CASTLEHAVEN ROAD J/W CASTLE ROAD,3 Slight,1,2,22/01/2005 04:28:00 PM,Saturday ,16.28,3 Bor,C,0,6 Single Cwy,2 30 MPH,6 Crossroads,4 Give Way/Uncontrolled,C,0,0 No Xing Facility In 50m,2 Dark,1 Fine,1 Road-Dry,0 None,0 None,528790,184570,-0.14412,51.545347,E05000139,Kentish Town,Unknown,"(51.545347, -0.14412)",34478,04/11/2016 10:29:06 AM,http://opendatacommunities.org/id/london-borough-council/camden
0105EO00113,CAMDEN,CLERKENWELL ROAD J/W LADYSTALL STREET,3 Slight,2,2,25/01/2005 06:21:00 PM,Tuesday  ,18.21,3 Bor,A,5201,6 Single Cwy,2 30 MPH,3 T/Stag Jun,2 Auto Sig,Unclassified,0,5 Pedn Phase At Ats,2 Dark,1 Fine,1 Road-Dry,0 None,0 None,531150,182030,-0.111052,51.521979,E05000138,Holborn and Covent Garden,Unknown,"(51.521979, -0.111052)",34477,04/11/2016 10:29:06 AM,http://opendatacommunities.org/id/london-borough-council/camden
0105EO00115,CAMDEN,WEST HEATH ROAD J/W WHITESTONE WALK,3 Slight,1,2,23/01/2005 11:27:00 AM,Sunday   ,11.27,3 Bor,C,0,6 Single Cwy,2 30 MPH,6 Crossroads,4 Give Way/Uncontrolled,C,0,0 No Xing Facility In 50m,1 Daylight,1 Fine,1 Road-Dry,0 None,0 None,526230,186290,-0.180401,51.561383,E05000135,Hampstead Town,Unknown,"(51.561383, -0.180401)",34476,04/11/2016 10:29:06 AM,http://opendatacommunities.org/id/london-borough-council/camden
0105EO00116,CAMDEN,CAMDEN ROAD J/W TORRIANO AVENUE,3 Slight,1,3,22/01/2005 03:30:00 AM,Saturday ,3.30,1 TLRN,A,503,6 Single Cwy,2 30 MPH,6 Crossroads,2 Auto Sig,A,5200,5 Pedn Phase At Ats,2 Dark,1 Fine,1 Road-Dry,0 None,0 None,529720,184870,-0.130606,51.547831,E05000131,Cantelowes,Unknown,"(51.547831, -0.130606)",34475,04/11/2016 10:29:06 AM,http://opendatacommunities.org/id/london-borough-council/camden
0105EO00118,CAMDEN,NFL ETON AVENUE 40M W OF J/W PRIMROSE HILL ROAD,3 Slight,1,2,25/01/2005 09:53:00 PM,Tuesday  ,21.53,3 Bor,Unclassified,0,6 Single Cwy,2 30 MPH,0 No Jun In 20m,-2 Not Applicable,-2 Not Applicable,0,0 No Xing Facility In 50m,2 Dark,2 Raining,2 Road-Wet,0 None,0 None,527440,184540,-0.163589,51.545384,E05000128,Belsize,Unknown,"(51.545384, -0.163589)",34474,04/11/2016 10:29:06 AM,http://opendatacommunities.org/id/london-borough-council/camden
0105EO00119,CAMDEN,NFL NEW OXFORD STREET J/W WEST CENTRAL STREET,3 Slight,1,1,24/01/2005 06:10:00 PM,Monday   ,18.10,3 Bor,A,40,6 Single Cwy,2 30 MPH,6 Crossroads,2 Auto Sig,A,40,5 Pedn Phase At Ats,2 Dark,1 Fine,1 Road-Dry,0 None,0 None,530139,181450,-0.125829,51.517,E05000138,Holborn and Covent Garden,Unknown,"(51.517, -0.125829)",34473,04/11/2016 10:29:06 AM,http://opendatacommunities.org/id/london-borough-council/camden
0105EO00123,CAMDEN,CHARING CROSS ROAD/ANDREW BORDE STREET,3 Slight,1,1,26/01/2005 07:50:00 PM,Wednesday,19.50,3 Bor,A,400,6 Single Cwy,2 30 MPH,7 Multi Jun,2 Auto Sig,A,40,5 Pedn Phase At Ats,2 Dark,2 Raining,2 Road-Wet,0 None,0 None,529830,181300,-0.130335,51.515723,E05000138,Holborn and Covent Garden,Unknown,"(51.515723, -0.130335)",34472,04/11/2016 10:29:06 AM,http://opendatacommunities.org/id/london-borough-council/camden
0105EO00125,CAMDEN,GORDON HOUSE ROAD J/W OAK VILLAGE,3 Slight,1,1,26/01/2005 03:15:00 PM,Wednesday,15.15,3 Bor,B,518,6 Single Cwy,2 30 MPH,3 T/Stag Jun,4 Give Way/Uncontrolled,Unclassified,0,1 Zebra,1 Daylight,1 Fine,1 Road-Dry,0 None,0 None,528260,185620,-0.151377,51.554904,E05000134,Gospel Oak,Unknown,"(51.554904, -0.151377)",34471,04/11/2016 10:29:06 AM,http://opendatacommunities.org/id/london-borough-council/camden
0105EO00126,CAMDEN,PHOENIX ROAD J/W EVERSHOLT STREET,3 Slight,1,1,27/01/2005 12:02:00 PM,Thursday ,12.02,3 Bor,C,0,6 Single Cwy,2 30 MPH,3 T/Stag Jun,4 Give Way/Uncontrolled,A,4200,0 No Xing Facility In 50m,1 Daylight,1 Fine,1 Road-Dry,0 None,0 None,529550,182890,-0.133784,51.530076,E05000143,St Pancras and Somers Town,Unknown,"(51.530076, -0.133784)",34470,04/11/2016 10:29:06 AM,http://opendatacommunities.org/id/london-borough-council/camden
0105EO00128,CAMDEN,WINCHESTER ROAD/ADELAIDE ROAD,3 Slight,1,2,25/01/2005 08:30:00 AM,Tuesday  ,8.30,3 Bor,B,509,6 Single Cwy,2 30 MPH,6 Crossroads,2 Auto Sig,Unclassified,0,5 Pedn Phase At Ats,1 Daylight,1 Fine,2 Road-Wet,0 None,0 None,526900,184170,-0.171505,51.54218,E05000144,Swiss Cottage,Unknown,"(51.54218, -0.171505)",34469,04/11/2016 10:29:06 AM,http://opendatacommunities.org/id/london-borough-council/camden
0105EO00131,CAMDEN,HIGHGATE ROAD J/W GROVE TERRACE MEWS,3 Slight,1,2,25/01/2005 08:45:00 AM,Tuesday  ,8.45,3 Bor,C,0,6 Single Cwy,2 30 MPH,3 T/Stag Jun,4 Give Way/Uncontrolled,Unclassified,0,0 No Xing Facility In 50m,1 Daylight,1 Fine,1 Road-Dry,0 None,0 None,528450,186020,-0.148492,51.558456,E05000137,Highgate,Unknown,"(51.558456, -0.148492)",34468,04/11/2016 10:29:06 AM,http://opendatacommunities.org/id/london-borough-council/camden
0105EO00133,CAMDEN,THEOBALDS ROAD J/W NEW NORTH STREET,3 Slight,1,2,25/01/2005 11:20:00 AM,Tuesday  ,11.20,3 Bor,A,401,6 Single Cwy,2 30 MPH,3 T/Stag Jun,4 Give Way/Uncontrolled,Unclassified,0,0 No Xing Facility In 50m,1 Daylight,1 Fine,1 Road-Dry,0 None,0 None,530570,181780,-0.119499,51.519866,E05000138,Holborn and Covent Garden,Unknown,"(51.519866, -0.119499)",34467,04/11/2016 10:29:06 AM,http://opendatacommunities.org/id/london-borough-council/camden
0105EO00134,CAMDEN,CAMDEN HIGH STREET J/W PARKWAY,3 Slight,1,3,24/01/2005 10:30:00 PM,Monday   ,22.30,1 TLRN,A,400,2 One-Way St,2 30 MPH,3 T/Stag Jun,2 Auto Sig,A,4201,5 Pedn Phase At Ats,2 Dark,1 Fine,1 Road-Dry,0 None,0 None,528920,183830,-0.142517,51.538668,E05000130,Camden Town with Primrose Hill,Unknown,"(51.538668, -0.142517)",34466,04/11/2016 10:29:06 AM,http://opendatacommunities.org/id/london-borough-council/camden
0105EO00136,CAMDEN,ROSSLYN HILL J/W POND STREET,3 Slight,1,2,29/01/2005 11:45:00 AM,Saturday ,11.45,3 Bor,A,502,6 Single Cwy,2 30 MPH,6 Crossroads,2 Auto Sig,B,518,5 Pedn Phase At Ats,1 Daylight,1 Fine,1 Road-Dry,0 None,0 None,527030,185390,-0.169191,51.553115,E05000135,Hampstead Town,Unknown,"(51.553115, -0.169191)",34465,04/11/2016 10:29:06 AM,http://opendatacommunities.org/id/london-borough-council/camden
0105EO00137,CAMDEN,LYNDHURST TERRACE 21M N OF J/W LYNDHURST ROAD,3 Slight,1,2,28/01/2005 11:01:00 AM,Friday   ,11.01,3 Bor,Unclassified,0,6 Single Cwy,2 30 MPH,0 No Jun In 20m,-2 Not Applicable,-2 Not Applicable,0,0 No Xing Facility In 50m,1 Daylight,2 Raining,2 Road-Wet,0 None,0 None,526670,185280,-0.174421,51.552207,E05000135,Hampstead Town,Unknown,"(51.552207, -0.174421)",34464,04/11/2016 10:29:06 AM,http://opendatacommunities.org/id/london-borough-council/camden
0105EO00138,CAMDEN,GOWER STREET J/W GRAFTON WAY,3 Slight,1,2,25/01/2005 10:15:00 AM,Tuesday  ,10.15,3 Bor,A,400,2 One-Way St,2 30 MPH,3 T/Stag Jun,4 Give Way/Uncontrolled,C,0,0 No Xing Facility In 50m,1 Daylight,1 Fine,1 Road-Dry,0 None,0 None,529480,182280,-0.135017,51.52461,E05000129,Bloomsbury,Unknown,"(51.52461, -0.135017)",34463,04/11/2016 10:29:06 AM,http://opendatacommunities.org/id/london-borough-council/camden
0105EO00139,CAMDEN,NFL EUSTON ROAD 59M SW J/W PANCRAS ROAD,3 Slight,1,2,26/01/2005 11:05:00 PM,Wednesday,23.05,1 TLRN,A,501,6 Single Cwy,2 30 MPH,0 No Jun In 20m,-2 Not Applicable,-2 Not Applicable,0,0 No Xing Facility In 50m,2 Dark,1 Fine,1 Road-Dry,0 None,0 None,530180,182860,-0.124718,51.529662,E05000141,King's Cross,Unknown,"(51.529662, -0.124718)",34462,04/11/2016 10:29:06 AM,http://opendatacommunities.org/id/london-borough-council/camden
0105EO00140,CAMDEN,NFL WEST HILL 72.9M S OF J/W NORTH ROAD,3 Slight,1,1,29/01/2005 02:44:00 AM,Saturday ,2.44,3 Bor,C,0,6 Single Cwy,2 30 MPH,0 No Jun In 20m,-2 Not Applicable,-2 Not Applicable,0,0 No Xing Facility In 50m,2 Dark,1 Fine,2 Road-Wet,0 None,0 None,528280,187390,-0.150443,51.570806,E05000137,Highgate,Unknown,"(51.570806, -0.150443)",34461,04/11/2016 10:29:06 AM,http://opendatacommunities.org/id/london-borough-council/camden
0105EO00143,CAMDEN,NFL CAMDEN ROAD 64M SW OF J/W SANDALL ROAD,3 Slight,1,1,27/01/2005 08:25:00 AM,Thursday ,8.25,1 TLRN,A,503,6 Single Cwy,2 30 MPH,0 No Jun In 20m,-2 Not Applicable,-2 Not Applicable,0,4 Pelican Or Similar,1 Daylight,1 Fine,2 Road-Wet,0 None,0 None,529470,184560,-0.134323,51.545102,E05000131,Cantelowes,Unknown,"(51.545102, -0.134323)",34460,04/11/2016 10:29:06 AM,http://opendatacommunities.org/id/london-borough-council/camden
0105EO00145,CAMDEN,GOODSWAY J/W PANCRAS ROAD,3 Slight,1,2,29/01/2005 08:35:00 PM,Saturday ,20.35,3 Bor,C,0,6 Single Cwy,2 30 MPH,7 Multi Jun,2 Auto Sig,A,5202,5 Pedn Phase At Ats,2 Dark,2 Raining,2 Road-Wet,0 None,0 None,530000,183200,-0.127186,51.532759,E05000143,St Pancras and Somers Town,Unknown,"(51.532759, -0.127186)",34459,04/11/2016 10:29:06 AM,http://opendatacommunities.org/id/london-borough-council/camden
0105EO00146,CAMDEN,PRINCE OF WALES ROAD/KENTISH TOWN,3 Slight,1,2,27/01/2005 08:05:00 PM,Thursday ,20.05,3 Bor,A,400,6 Single Cwy,2 30 MPH,3 T/Stag Jun,2 Auto Sig,C,0,5 Pedn Phase At Ats,2 Dark,2 Raining,2 Road-Wet,0 None,0 None,528940,184700,-0.141911,51.546482,E05000139,Kentish Town,Unknown,"(51.546482, -0.141911)",34458,04/11/2016 10:29:06 AM,http://opendatacommunities.org/id/london-borough-council/camden
0105EO00147,CAMDEN,NFL MAPLE STREET J/W WHITFIELD STREET,3 Slight,1,2,27/01/2005 02:37:00 AM,Thursday ,2.37,3 Bor,A,400,6 Single Cwy,2 30 MPH,3 T/Stag Jun,4 Give Way/Uncontrolled,A,400,0 No Xing Facility In 50m,2 Dark,2 Raining,2 Road-Wet,0 None,0 None,529410,182030,-0.136117,51.52238,E05000129,Bloomsbury,Unknown,"(51.52238, -0.136117)",34457,04/11/2016 10:29:06 AM,http://opendatacommunities.org/id/london-borough-council/camden
0105EO00149,CAMDEN,PARKWAY/GLOUCESTER AVENUE,3 Slight,1,2,28/01/2005 05:01:00 PM,Friday   ,17.01,3 Bor,A,4201,3 Dual Cwy,2 30 MPH,6 Crossroads,2 Auto Sig,C,0,5 Pedn Phase At Ats,1 Daylight,2 Raining,2 Road-Wet,0 None,0 None,528650,183610,-0.146489,51.536752,E05000130,Camden Town with Primrose Hill,Unknown,"(51.536752, -0.146489)",34456,04/11/2016 10:29:06 AM,http://opendatacommunities.org/id/london-borough-council/camden
0105EO00150,CAMDEN,HAMSTEAD ROAD/MORNINGTON CRESCENT,3 Slight,1,2,29/01/2005 10:14:00 PM,Saturday ,22.14,1 TLRN,A,400,2 One-Way St,2 30 MPH,7 Multi Jun,2 Auto Sig,A,400,5 Pedn Phase At Ats,2 Dark,1 Fine,1 Road-Dry,0 None,0 None,529150,183160,-0.139448,51.532594,E05000142,Regent's Park,Unknown,"(51.532594, -0.139448)",34455,04/11/2016 10:29:06 AM,http://opendatacommunities.org/id/london-borough-council/camden
0105EO00156,CAMDEN,HIGH HOLBORN/RED LION STREET,3 Slight,1,2,30/01/2005 02:10:00 AM,Sunday   ,2.10,3 Bor,A,40,6 Single Cwy,2 30 MPH,3 T/Stag Jun,4 Give Way/Uncontrolled,C,0,0 No Xing Facility In 50m,2 Dark,1 Fine,1 Road-Dry,0 None,0 None,530770,181570,-0.116696,51.517933,E05000138,Holborn and Covent Garden,Unknown,"(51.517933, -0.116696)",34454,04/11/2016 10:29:06 AM,http://opendatacommunities.org/id/london-borough-council/camden
0105EO00157,CAMDEN,NFL EUSTON ROAD J/W EVERSHOLT STREET,3 Slight,1,2,31/01/2005 03:00:00 PM,Monday   ,15.00,1 TLRN,A,501,6 Single Cwy,2 30 MPH,6 Crossroads,2 Auto Sig,A,4200,5 Pedn Phase At Ats,1 Daylight,1 Fine,1 Road-Dry,0 None,0 None,529750,182590,-0.131013,51.527334,E05000142,Regent's Park,Unknown,"(51.527334, -0.131013)",34453,04/11/2016 10:29:06 AM,http://opendatacommunities.org/id/london-borough-council/camden
0105EO00168,CAMDEN,NFL EUSTON SQUARE 26M N OF J/W EASTON ROAD,3 Slight,1,1,14/01/2005 12:45:00 AM,Friday   ,0.45,3 Bor,A,4200,6 Single Cwy,2 30 MPH,0 No Jun In 20m,-2 Not Applicable,-2 Not Applicable,0,4 Pelican Or Similar,2 Dark,1 Fine,2 Road-Wet,0 None,0 None,529740,182610,-0.13115,51.527516,E05000142,Regent's Park,Unknown,"(51.527516, -0.13115)",34452,04/11/2016 10:29:06 AM,http://opendatacommunities.org/id/london-borough-council/camden
0105EO00179,CAMDEN,PROCTER STREET J/W HIGH HOLBORN,3 Slight,1,2,25/02/2005 02:35:00 AM,Friday   ,2.35,3 Bor,A,40,2 One-Way St,2 30 MPH,3 T/Stag Jun,2 Auto Sig,A,40,0 No Xing Facility In 50m,2 Dark,1 Fine,1 Road-Dry,0 None,0 None,530590,181540,-0.1193,51.517705,E05000138,Holborn and Covent Garden,Unknown,"(51.517705, -0.1193)",34451,04/11/2016 10:29:06 AM,http://opendatacommunities.org/id/london-borough-council/camden
0105EO00184,CAMDEN,GRAY'S INN ROAD 30M N J/W PORTPOOL LANE,3 Slight,1,1,18/01/2005 09:42:00 PM,Tuesday  ,21.42,3 Bor,A,5200,6 Single Cwy,2 30 MPH,0 No Jun In 20m,-2 Not Applicable,-2 Not Applicable,0,0 No Xing Facility In 50m,2 Dark,1 Fine,1 Road-Dry,0 None,0 None,531020,181910,-0.112969,51.52093,E05000138,Holborn and Covent Garden,Unknown,"(51.52093, -0.112969)",34450,04/11/2016 10:29:06 AM,http://opendatacommunities.org/id/london-borough-council/camden
0105EO40001,CAMDEN,NFL OUTER CIRCLE 62 M J/W CHESTER ROAD,3 Slight,1,2,04/02/2005 05:36:00 PM,Friday   ,17.36,3 Bor,Unclassified,0,6 Single Cwy,2 30 MPH,0 No Jun In 20m,-2 Not Applicable,-2 Not Applicable,0,0 No Xing Facility In 50m,2 Dark,1 Fine,1 Road-Dry,0 None,0 None,528710,182800,-0.14592,51.529459,E05000142,Regent's Park,Unknown,"(51.529459, -0.14592)",34449,04/11/2016 10:29:06 AM,http://opendatacommunities.org/id/london-borough-council/camden
0105EO40003,CAMDEN,CAMDEN PARK ROAD J/W CLIFF VILLAS,3 Slight,1,2,01/02/2005 03:35:00 PM,Tuesday  ,15.35,3 Bor,A,5200,6 Single Cwy,2 30 MPH,3 T/Stag Jun,4 Give Way/Uncontrolled,Unclassified,0,1 Zebra,1 Daylight,1 Fine,2 Road-Wet,0 None,0 None,529930,184700,-0.127642,51.546255,E05000131,Cantelowes,Unknown,"(51.546255, -0.127642)",34448,04/11/2016 10:29:06 AM,http://opendatacommunities.org/id/london-borough-council/camden
0105EO40004,CAMDEN,EAST HEATH ROAD J/W SQUIRE'S MOUNT,3 Slight,1,2,01/02/2005 09:15:00 AM,Tuesday  ,9.15,3 Bor,C,0,6 Single Cwy,2 30 MPH,6 Crossroads,4 Give Way/Uncontrolled,Unclassified,0,0 No Xing Facility In 50m,1 Daylight,1 Fine,2 Road-Wet,0 None,0 None,526560,186240,-0.175661,51.560859,E05000135,Hampstead Town,Unknown,"(51.560859, -0.175661)",34447,04/11/2016 10:29:06 AM,http://opendatacommunities.org/id/london-borough-council/camden
0105EO40005,CAMDEN,LEIGHTON ROAD J/W LEVERTON STREET,3 Slight,1,3,05/02/2005 03:30:00 PM,Saturday ,15.30,3 Bor,C,0,6 Single Cwy,2 30 MPH,3 T/Stag Jun,4 Give Way/Uncontrolled,Unclassified,0,0 No Xing Facility In 50m,1 Daylight,1 Fine,1 Road-Dry,0 None,0 None,529060,185190,-0.140002,51.550858,E05000139,Kentish Town,Unknown,"(51.550858, -0.140002)",34446,04/11/2016 10:29:06 AM,http://opendatacommunities.org/id/london-borough-council/camden
0105EO40008,CAMDEN,CAMDEN ROAD J/W CAMDEN STREET,3 Slight,1,2,07/02/2005 07:45:00 PM,Monday   ,19.45,1 TLRN,A,503,6 Single Cwy,2 30 MPH,6 Crossroads,2 Auto Sig,A,400,5 Pedn Phase At Ats,2 Dark,1 Fine,1 Road-Dry,0 None,0 None,529090,184040,-0.139991,51.540516,E05000130,Camden Town with Primrose Hill,Unknown,"(51.540516, -0.139991)",34445,04/11/2016 10:29:06 AM,http://opendatacommunities.org/id/london-borough-council/camden
0105EO40009,CAMDEN,FIMCHLEY ROAD J/W STUDHOLME COURT,3 Slight,1,2,07/02/2005 08:39:00 AM,Monday   ,8.39,1 TLRN,A,41,6 Single Cwy,2 30 MPH,3 T/Stag Jun,4 Give Way/Uncontrolled,Unclassified,0,0 No Xing Facility In 50m,1 Daylight,1 Fine,1 Road-Dry,0 None,0 None,525430,185540,-0.192203,51.554821,E05000132,Fortune Green,Unknown,"(51.554821, -0.192203)",34444,04/11/2016 10:29:06 AM,http://opendatacommunities.org/id/london-borough-council/camden
0105EO40011,CAMDEN,FORTUNE GREEN ROAD J/W HILLFIELD ROAD,3 Slight,3,2,13/02/2005 02:26:00 PM,Sunday   ,14.26,3 Bor,B,510,6 Single Cwy,2 30 MPH,3 T/Stag Jun,4 Give Way/Uncontrolled,Unclassified,0,0 No Xing Facility In 50m,1 Daylight,1 Fine,1 Road-Dry,0 None,0 None,525190,185400,-0.195713,51.553616,E05000132,Fortune Green,Unknown,"(51.553616, -0.195713)",34443,04/11/2016 10:29:06 AM,http://opendatacommunities.org/id/london-borough-council/camden
0105EO40012,CAMDEN,HAMPSTEAD ROAD J/W DRUMMOND STREET,3 Slight,1,1,11/02/2005 10:05:00 AM,Friday   ,10.05,1 TLRN,A,400,6 Single Cwy,2 30 MPH,3 T/Stag Jun,4 Give Way/Uncontrolled,A,400,1 Zebra,1 Daylight,1 Fine,1 Road-Dry,0 None,0 None,529220,182480,-0.138689,51.526467,E05000142,Regent's Park,Unknown,"(51.526467, -0.138689)",34442,04/11/2016 10:29:06 AM,http://opendatacommunities.org/id/london-borough-council/camden
0105EO40013,CAMDEN,CLERKENWELL ROAD J/W HATTON GARDEN,3 Slight,1,3,01/02/2005 02:50:00 PM,Tuesday  ,14.50,3 Bor,A,5201,6 Single Cwy,2 30 MPH,3 T/Stag Jun,4 Give Way/Uncontrolled,B,521,1 Zebra,1 Daylight,1 Fine,1 Road-Dry,0 None,0 None,531270,182040,-0.109319,51.522041,E05000138,Holborn and Covent Garden,Unknown,"(51.522041, -0.109319)",34441,04/11/2016 10:29:06 AM,http://opendatacommunities.org/id/london-borough-council/camden
0105EO40238,CAMDEN,CAMDEN HIGH STREET J/W HAMPSTEAD ROAD,3 Slight,1,1,08/04/2005 01:25:00 AM,Friday   ,1.25,1 TLRN,A,4200,6 Single Cwy,2 30 MPH,3 T/Stag Jun,4 Give Way/Uncontrolled,A,400,0 No Xing Facility In 50m,2 Dark,1 Fine,1 Road-Dry,0 None,0 None,529150,183460,-0.139339,51.53529,E05000142,Regent's Park,Unknown,"(51.53529, -0.139339)",34369,04/11/2016 10:29:06 AM,http://opendatacommunities.org/id/london-borough-council/camden
0105EO40018,CAMDEN,FARRINGDON ROAD J/W ST CROSS STREET,3 Slight,1,2,07/02/2005 11:10:00 AM,Monday   ,11.10,1 TLRN,A,201,6 Single Cwy,2 30 MPH,3 T/Stag Jun,4 Give Way/Uncontrolled,Unclassified,0,0 No Xing Facility In 50m,1 Daylight,1 Fine,1 Road-Dry,0 None,0 None,531470,181950,-0.106472,51.521185,E05000138,Holborn and Covent Garden,Unknown,"(51.521185, -0.106472)",34440,04/11/2016 10:29:06 AM,http://opendatacommunities.org/id/london-borough-council/camden
0105EO40023,CAMDEN,NFL OUTER CIRCLE 40M J/W PARK SQUARE EAST,3 Slight,1,1,09/02/2005 08:50:00 AM,Wednesday,8.50,3 Bor,Unclassified,0,6 Single Cwy,2 30 MPH,0 No Jun In 20m,-2 Not Applicable,-2 Not Applicable,0,0 No Xing Facility In 50m,1 Daylight,8 Other,2 Road-Wet,0 None,0 None,528690,182320,-0.146383,51.52515,,,Unknown,"(51.52515, -0.146383)",34439,04/11/2016 10:29:06 AM,http://opendatacommunities.org/id/london-borough-council/camden
0105EO40025,CAMDEN,SOUTHGROVE J/W HIGHGATE HIGH STREET,3 Slight,1,3,13/02/2005 02:09:00 PM,Sunday   ,14.09,3 Bor,B,519,6 Single Cwy,2 30 MPH,7 Multi Jun,4 Give Way/Uncontrolled,Unclassified,0,4 Pelican Or Similar,1 Daylight,1 Fine,1 Road-Dry,0 None,0 None,528440,187390,-0.148136,51.57077,E05000137,Highgate,Unknown,"(51.57077, -0.148136)",34438,04/11/2016 10:29:06 AM,http://opendatacommunities.org/id/london-borough-council/camden
0105EO40026,CAMDEN,THEOBALD'S ROAD J/W GRAY'S INN ROAD,3 Slight,1,2,12/02/2005 01:45:00 PM,Saturday ,13.45,3 Bor,A,401,6 Single Cwy,2 30 MPH,6 Crossroads,2 Auto Sig,A,5200,5 Pedn Phase At Ats,1 Daylight,1 Fine,1 Road-Dry,0 None,0 None,530990,181970,-0.113379,51.521477,E05000138,Holborn and Covent Garden,Unknown,"(51.521477, -0.113379)",34437,04/11/2016 10:29:06 AM,http://opendatacommunities.org/id/london-borough-council/camden
0105EO40027,CAMDEN,NFL KENTISH TOWN ROAD J/W YORK MEWS,3 Slight,1,1,10/02/2005 08:50:00 AM,Thursday ,8.50,3 Bor,A,400,6 Single Cwy,2 30 MPH,3 T/Stag Jun,4 Give Way/Uncontrolled,Unclassified,0,4 Pelican Or Similar,1 Daylight,9 Unknown,1 Road-Dry,0 None,0 None,529000,185070,-0.14091,51.549793,E05000139,Kentish Town,Unknown,"(51.549793, -0.14091)",34436,04/11/2016 10:29:06 AM,http://opendatacommunities.org/id/london-borough-council/camden
0105EO40035,CAMDEN,NFL GREAT RUSSELL STREET 34M NW J/W ADELINE PLACE,2 Serious,1,1,15/02/2005 08:00:00 PM,Tuesday  ,20.00,3 Bor,C,0,6 Single Cwy,2 30 MPH,0 No Jun In 20m,-2 Not Applicable,-2 Not Applicable,0,0 No Xing Facility In 50m,2 Dark,1 Fine,1 Road-Dry,0 None,0 None,529900,181490,-0.129257,51.517415,E05000129,Bloomsbury,Unknown,"(51.517415, -0.129257)",34435,04/11/2016 10:29:06 AM,http://opendatacommunities.org/id/london-borough-council/camden
0105EO40036,CAMDEN,BELSIZE ROAD J/W GROVE ROAD,3 Slight,1,2,16/02/2005 09:05:00 AM,Wednesday,9.05,3 Bor,B,509,6 Single Cwy,2 30 MPH,1 Roundabout,4 Give Way/Uncontrolled,B,509,0 No Xing Facility In 50m,1 Daylight,1 Fine,1 Road-Dry,0 None,0 None,526350,184110,-0.179453,51.541765,E05000144,Swiss Cottage,Unknown,"(51.541765, -0.179453)",34434,04/11/2016 10:29:06 AM,http://opendatacommunities.org/id/london-borough-council/camden
0105EO40038,CAMDEN,NFL BAYHAM STREET 34 M N J/W GREENLAND ROAD,3 Slight,1,1,15/02/2005 12:20:00 PM,Tuesday  ,12.20,3 Bor,A,503,3 Dual Cwy,2 30 MPH,0 No Jun In 20m,-2 Not Applicable,-2 Not Applicable,0,0 No Xing Facility In 50m,1 Daylight,1 Fine,1 Road-Dry,0 None,0 None,529000,183850,-0.141357,51.538829,E05000130,Camden Town with Primrose Hill,Unknown,"(51.538829, -0.141357)",34433,04/11/2016 10:29:06 AM,http://opendatacommunities.org/id/london-borough-council/camden
0105EO40040,CAMDEN,NFL SOUTHAMPTON ROW 35 M SE J/W BLOOMSBURY PLACE,3 Slight,1,1,14/02/2005 01:34:00 PM,Monday   ,13.34,3 Bor,A,4200,6 Single Cwy,2 30 MPH,0 No Jun In 20m,-2 Not Applicable,-2 Not Applicable,0,0 No Xing Facility In 50m,1 Daylight,1 Fine,1 Road-Dry,0 None,0 None,530400,181740,-0.121963,51.519546,E05000138,Holborn and Covent Garden,Unknown,"(51.519546, -0.121963)",34432,04/11/2016 10:29:06 AM,http://opendatacommunities.org/id/london-borough-council/camden
0105EO40041,CAMDEN,KENTISH TOWN ROAD J/W HAWLEY ROAD,3 Slight,1,1,15/02/2005 01:35:00 PM,Tuesday  ,13.35,3 Bor,A,400,6 Single Cwy,2 30 MPH,3 T/Stag Jun,2 Auto Sig,C,0,0 No Xing Facility In 50m,1 Daylight,1 Fine,1 Road-Dry,0 None,0 None,528950,184270,-0.141924,51.542615,E05000130,Camden Town with Primrose Hill,Unknown,"(51.542615, -0.141924)",34431,04/11/2016 10:29:06 AM,http://opendatacommunities.org/id/london-borough-council/camden
0105EO40043,CAMDEN,NFL BAYHAM STREET J/W CROWNDALE ROAD,3 Slight,1,1,15/02/2005 08:45:00 PM,Tuesday  ,20.45,3 Bor,B,512,6 Single Cwy,2 30 MPH,3 T/Stag Jun,4 Give Way/Uncontrolled,C,0,1 Zebra,2 Dark,1 Fine,1 Road-Dry,0 None,0 None,529270,183410,-0.137628,51.534813,E05000142,Regent's Park,Unknown,"(51.534813, -0.137628)",34430,04/11/2016 10:29:06 AM,http://opendatacommunities.org/id/london-borough-council/camden
0105EO40046,CAMDEN,PRINCE OF WALES ROAD 50M E J/W HAVERSTOCK HILL,3 Slight,1,2,15/02/2005 04:00:00 PM,Tuesday  ,16.00,3 Bor,C,0,6 Single Cwy,2 30 MPH,0 No Jun In 20m,-2 Not Applicable,-2 Not Applicable,0,0 No Xing Facility In 50m,1 Daylight,1 Fine,1 Road-Dry,0 None,0 None,528020,184600,-0.155207,51.545792,E05000136,Haverstock,Unknown,"(51.545792, -0.155207)",34429,04/11/2016 10:29:06 AM,http://opendatacommunities.org/id/london-borough-council/camden
0105EO40049,CAMDEN,KINGSWAY J/W GATE STREET,3 Slight,1,2,16/02/2005 11:41:00 PM,Wednesday,23.41,3 Bor,A,4200,6 Single Cwy,2 30 MPH,3 T/Stag Jun,4 Give Way/Uncontrolled,Unclassified,0,8 Central Refuge,2 Dark,1 Fine,1 Road-Dry,0 None,0 None,530530,181470,-0.12019,51.51709,E05000138,Holborn and Covent Garden,Unknown,"(51.51709, -0.12019)",34428,04/11/2016 10:29:06 AM,http://opendatacommunities.org/id/london-borough-council/camden
0105EO40053,CAMDEN,KINGSWAY J/W WILD COURT,3 Slight,1,2,21/02/2005 01:40:00 PM,Monday   ,13.40,3 Bor,A,4200,6 Single Cwy,2 30 MPH,3 T/Stag Jun,4 Give Way/Uncontrolled,Unclassified,0,0 No Xing Facility In 50m,1 Daylight,3 Snowing,2 Road-Wet,0 None,0 None,530590,181320,-0.119381,51.515728,E05000138,Holborn and Covent Garden,Unknown,"(51.515728, -0.119381)",34427,04/11/2016 10:29:06 AM,http://opendatacommunities.org/id/london-borough-council/camden
0105EO40054,CAMDEN,CAMDEN STREET J/W CAMDEN GARDENS,3 Slight,2,3,23/02/2005 11:06:00 AM,Wednesday,11.06,3 Bor,A,400,6 Single Cwy,2 30 MPH,3 T/Stag Jun,4 Give Way/Uncontrolled,Unclassified,0,0 No Xing Facility In 50m,1 Daylight,1 Fine,1 Road-Dry,0 None,0 None,529020,184160,-0.140956,51.54161,E05000130,Camden Town with Primrose Hill,Unknown,"(51.54161, -0.140956)",34426,04/11/2016 10:29:06 AM,http://opendatacommunities.org/id/london-borough-council/camden
0105EO40056,CAMDEN,NFL KENTISH TOWN RD 22M SOUTH FROM J/W BUCK ST,3 Slight,1,2,15/02/2005 09:20:00 AM,Tuesday  ,9.20,3 Bor,A,400,6 Single Cwy,2 30 MPH,0 No Jun In 20m,-2 Not Applicable,-2 Not Applicable,0,0 No Xing Facility In 50m,1 Daylight,1 Fine,1 Road-Dry,0 None,0 None,528930,183990,-0.142315,51.540103,E05000130,Camden Town with Primrose Hill,Unknown,"(51.540103, -0.142315)",34425,04/11/2016 10:29:06 AM,http://opendatacommunities.org/id/london-borough-council/camden
0105EO40059,CAMDEN,CLERKENWELL ROAD J/W VINE STREET BRIDGE,3 Slight,1,2,15/02/2005 06:24:00 PM,Tuesday  ,18.24,3 Bor,A,5201,6 Single Cwy,2 30 MPH,7 Multi Jun,2 Auto Sig,Unclassified,0,5 Pedn Phase At Ats,2 Dark,2 Raining,2 Road-Wet,0 None,0 None,531390,182050,-0.107587,51.522103,E05000138,Holborn and Covent Garden,Unknown,"(51.522103, -0.107587)",34424,04/11/2016 10:29:06 AM,http://opendatacommunities.org/id/london-borough-council/camden
0105EO40060,CAMDEN,NFL CAMDEN HIGH STREET J/W INVERNESS STREET,3 Slight,1,1,19/02/2005 03:00:00 PM,Saturday ,15.00,3 Bor,A,502,6 Single Cwy,2 30 MPH,3 T/Stag Jun,4 Give Way/Uncontrolled,Unclassified,0,0 No Xing Facility In 50m,1 Daylight,1 Fine,1 Road-Dry,0 None,0 None,528850,183950,-0.143482,51.539762,E05000130,Camden Town with Primrose Hill,Unknown,"(51.539762, -0.143482)",34423,04/11/2016 10:29:06 AM,http://opendatacommunities.org/id/london-borough-council/camden
0105EO40087,CAMDEN,HIGH HOLBORN J/W SHAFTESBURY AVE,3 Slight,1,2,21/02/2005 01:00:00 PM,Monday   ,13.00,3 Bor,A,40,6 Single Cwy,2 30 MPH,6 Crossroads,2 Auto Sig,A,401,5 Pedn Phase At Ats,1 Daylight,1 Fine,1 Road-Dry,0 None,0 None,530120,181320,-0.126151,51.515836,E05000138,Holborn and Covent Garden,Unknown,"(51.515836, -0.126151)",34422,04/11/2016 10:29:06 AM,http://opendatacommunities.org/id/london-borough-council/camden
0105EO40097,CAMDEN,GRAYS INN RD J/W EUSTON RD,3 Slight,1,2,16/02/2005 07:30:00 PM,Wednesday,19.30,1 TLRN,A,5200,6 Single Cwy,2 30 MPH,3 T/Stag Jun,2 Auto Sig,A,501,5 Pedn Phase At Ats,2 Dark,1 Fine,1 Road-Dry,0 None,0 None,530320,182960,-0.122664,51.530528,E05000141,King's Cross,Unknown,"(51.530528, -0.122664)",34421,04/11/2016 10:29:06 AM,http://opendatacommunities.org/id/london-borough-council/camden
0105EO40099,CAMDEN,N.F.L BAYHAM STREET 45M NE OF GREENLAND STREET,3 Slight,1,1,10/02/2005 01:45:00 PM,Thursday ,13.45,3 Bor,A,503,6 Single Cwy,2 30 MPH,0 No Jun In 20m,-2 Not Applicable,-2 Not Applicable,0,0 No Xing Facility In 50m,1 Daylight,1 Fine,1 Road-Dry,0 None,0 None,529050,183770,-0.140666,51.538099,E05000130,Camden Town with Primrose Hill,Unknown,"(51.538099, -0.140666)",34420,04/11/2016 10:29:06 AM,http://opendatacommunities.org/id/london-borough-council/camden
0105EO40100,CAMDEN,NFL NEW OXFORD STREET J/W BAINBRIDGE STREET,3 Slight,1,1,10/02/2005 02:41:00 PM,Thursday ,14.41,3 Bor,A,40,6 Single Cwy,2 30 MPH,3 T/Stag Jun,2 Auto Sig,A,40,5 Pedn Phase At Ats,1 Daylight,2 Raining,2 Road-Wet,0 None,0 None,529880,181380,-0.129586,51.516431,E05000138,Holborn and Covent Garden,Unknown,"(51.516431, -0.129586)",34419,04/11/2016 10:29:06 AM,http://opendatacommunities.org/id/london-borough-council/camden
0105EO40102,CAMDEN,AVENUE ROAD J/W ELSWORTHY ROAD,3 Slight,1,2,15/02/2005 09:46:00 PM,Tuesday  ,21.46,3 Bor,B,525,6 Single Cwy,2 30 MPH,3 T/Stag Jun,4 Give Way/Uncontrolled,Unclassified,0,0 No Xing Facility In 50m,2 Dark,1 Fine,1 Road-Dry,0 None,0 None,526960,183840,-0.170759,51.539201,E05000144,Swiss Cottage,Unknown,"(51.539201, -0.170759)",34418,04/11/2016 10:29:06 AM,http://opendatacommunities.org/id/london-borough-council/camden
0105EO40104,CAMDEN,NFL HIGH HOLBORN J/W NEWTON STREET,3 Slight,1,1,09/02/2005 02:08:00 PM,Wednesday,14.08,3 Bor,A,40,6 Single Cwy,2 30 MPH,3 T/Stag Jun,4 Give Way/Uncontrolled,Unclassified,0,0 No Xing Facility In 50m,1 Daylight,1 Fine,1 Road-Dry,0 None,0 None,530390,181490,-0.122199,51.517302,E05000138,Holborn and Covent Garden,Unknown,"(51.517302, -0.122199)",34417,04/11/2016 10:29:06 AM,http://opendatacommunities.org/id/london-borough-council/camden
0105EO40107,CAMDEN,NFL PENTONVILLE RD 41M EAST FROM J/W KINGS CROSS BRIDGE,3 Slight,1,2,27/02/2005 02:30:00 AM,Sunday   ,2.30,1 TLRN,A,501,6 Single Cwy,2 30 MPH,0 No Jun In 20m,-2 Not Applicable,-2 Not Applicable,0,0 No Xing Facility In 50m,2 Dark,1 Fine,2 Road-Wet,0 None,0 None,530470,183000,-0.120488,51.530853,E05000141,King's Cross,Unknown,"(51.530853, -0.120488)",34416,04/11/2016 10:29:06 AM,http://opendatacommunities.org/id/london-borough-council/camden
0105EO40109,CAMDEN,TOTTENHAM COURT ROAD J/W GRAFTON WAY,3 Slight,1,2,03/03/2005 09:30:00 PM,Thursday ,21.30,3 Bor,A,400,2 One-Way St,2 30 MPH,6 Crossroads,2 Auto Sig,C,0,5 Pedn Phase At Ats,2 Dark,1 Fine,1 Road-Dry,0 None,0 None,529320,182170,-0.137362,51.523658,E05000129,Bloomsbury,Unknown,"(51.523658, -0.137362)",34415,04/11/2016 10:29:06 AM,http://opendatacommunities.org/id/london-borough-council/camden
0105EO40113,CAMDEN,HIGHGATE RD J/W SANDERSON CL,3 Slight,1,2,23/02/2005 04:30:00 PM,Wednesday,16.30,3 Bor,B,518,6 Single Cwy,2 30 MPH,3 T/Stag Jun,4 Give Way/Uncontrolled,Unclassified,0,0 No Xing Facility In 50m,1 Daylight,2 Raining,2 Road-Wet,0 None,0 None,528730,185570,-0.144619,51.554348,E05000139,Kentish Town,Unknown,"(51.554348, -0.144619)",34414,04/11/2016 10:29:06 AM,http://opendatacommunities.org/id/london-borough-council/camden
0105EO40118,CAMDEN,GREAT QUEEN STREET J/W NEWTON STREET,3 Slight,1,2,22/02/2005 08:10:00 PM,Tuesday  ,20.10,3 Bor,B,402,6 Single Cwy,2 30 MPH,3 T/Stag Jun,4 Give Way/Uncontrolled,Unclassified,0,0 No Xing Facility In 50m,2 Dark,2 Raining,2 Road-Wet,0 None,0 None,530500,181330,-0.120674,51.515839,E05000138,Holborn and Covent Garden,Unknown,"(51.515839, -0.120674)",34413,04/11/2016 10:29:06 AM,http://opendatacommunities.org/id/london-borough-council/camden
0105EO40119,CAMDEN,GRAY'S INN ROAD 55M W OF PENTONVILLE ROAD,3 Slight,2,2,04/03/2005 05:21:00 AM,Friday   ,5.21,1 TLRN,A,501,6 Single Cwy,2 30 MPH,0 No Jun In 20m,-2 Not Applicable,-2 Not Applicable,0,0 No Xing Facility In 50m,2 Dark,1 Fine,1 Road-Dry,0 None,0 None,530390,182960,-0.121656,51.530512,E05000141,King's Cross,Unknown,"(51.530512, -0.121656)",34412,04/11/2016 10:29:06 AM,http://opendatacommunities.org/id/london-borough-council/camden
0105EO40127,CAMDEN,NFL TOTTENHAM COURT RD J/W PERCY ST,3 Slight,1,2,16/02/2005 09:00:00 PM,Wednesday,21.00,3 Bor,A,400,6 Single Cwy,2 30 MPH,3 T/Stag Jun,4 Give Way/Uncontrolled,A,400,0 No Xing Facility In 50m,2 Dark,1 Fine,1 Road-Dry,0 None,0 None,529670,181630,-0.132519,51.518725,E05000129,Bloomsbury,Unknown,"(51.518725, -0.132519)",34411,04/11/2016 10:29:06 AM,http://opendatacommunities.org/id/london-borough-council/camden
0105EO40128,CAMDEN,SOUTHAMPTON ROW 86M NW J/W BLOOMSBURY PLACE,3 Slight,1,2,27/02/2005 04:06:00 PM,Sunday   ,16.06,3 Bor,A,4200,6 Single Cwy,2 30 MPH,0 No Jun In 20m,-2 Not Applicable,-2 Not Applicable,0,0 No Xing Facility In 50m,1 Daylight,1 Fine,1 Road-Dry,0 None,0 None,530320,181840,-0.123078,51.520463,E05000129,Bloomsbury,Unknown,"(51.520463, -0.123078)",34410,04/11/2016 10:29:06 AM,http://opendatacommunities.org/id/london-borough-council/camden
0105EO40129,CAMDEN,BLOOMSBURY PLA J/W SOUTHAMPTON ROW,3 Slight,1,2,01/02/2005 05:45:00 PM,Tuesday  ,17.45,3 Bor,A,4200,6 Single Cwy,2 30 MPH,3 T/Stag Jun,2 Auto Sig,C,0,5 Pedn Phase At Ats,2 Dark,1 Fine,1 Road-Dry,0 None,0 None,530380,181770,-0.12224,51.51982,E05000138,Holborn and Covent Garden,Unknown,"(51.51982, -0.12224)",34409,04/11/2016 10:29:06 AM,http://opendatacommunities.org/id/london-borough-council/camden
0105EO40133,CAMDEN,THURLOW ROAD J/W ROSSLYN HILL,2 Serious,1,1,28/02/2005 12:40:00 PM,Monday   ,12.40,3 Bor,A,502,6 Single Cwy,2 30 MPH,6 Crossroads,2 Auto Sig,Unclassified,0,5 Pedn Phase At Ats,1 Daylight,1 Fine,1 Road-Dry,0 None,0 None,526820,185520,-0.172172,51.554331,E05000135,Hampstead Town,Unknown,"(51.554331, -0.172172)",34408,04/11/2016 10:29:06 AM,http://opendatacommunities.org/id/london-borough-council/camden
0105EO40135,CAMDEN,ACTON STREET J/W GRAY'S INN ROAD,3 Slight,1,1,04/03/2005 10:30:00 AM,Friday   ,10.30,1 TLRN,C,0,2 One-Way St,2 30 MPH,3 T/Stag Jun,4 Give Way/Uncontrolled,A,5200,1 Zebra,1 Daylight,2 Raining,2 Road-Wet,0 None,0 None,530580,182710,-0.119011,51.528222,E05000141,King's Cross,Unknown,"(51.528222, -0.119011)",34407,04/11/2016 10:29:06 AM,http://opendatacommunities.org/id/london-borough-council/camden
0105EO40136,CAMDEN,MINSTER ROAD J/W FORDWYCH ROAD,3 Slight,1,1,07/03/2005 10:00:00 PM,Monday   ,22.00,3 Bor,Unclassified,0,6 Single Cwy,2 30 MPH,6 Crossroads,4 Give Way/Uncontrolled,Unclassified,0,0 No Xing Facility In 50m,2 Dark,1 Fine,1 Road-Dry,0 None,0 None,524390,185190,-0.20732,51.551905,E05000132,Fortune Green,Unknown,"(51.551905, -0.20732)",34406,04/11/2016 10:29:06 AM,http://opendatacommunities.org/id/london-borough-council/camden
0105EO40141,CAMDEN,DELANCEY STREET J/W CAMDEN HIGH STREET,3 Slight,1,2,05/02/2005 09:30:00 PM,Saturday ,21.30,1 TLRN,A,503,2 One-Way St,2 30 MPH,3 T/Stag Jun,2 Auto Sig,A,502,5 Pedn Phase At Ats,2 Dark,1 Fine,1 Road-Dry,0 None,0 None,529010,183660,-0.141283,51.537119,E05000142,Regent's Park,Unknown,"(51.537119, -0.141283)",34405,04/11/2016 10:29:06 AM,http://opendatacommunities.org/id/london-borough-council/camden
0105EO40144,CAMDEN,NFL COLLARD PLACE 24 M E J/W HARMOOD STREET,3 Slight,1,1,15/03/2005 11:00:00 AM,Tuesday  ,11.00,3 Bor,Unclassified,0,6 Single Cwy,1 <= 20 MPH,9 Other Jun,4 Give Way/Uncontrolled,Unclassified,0,0 No Xing Facility In 50m,1 Daylight,1 Fine,1 Road-Dry,0 None,0 None,528540,184380,-0.147793,51.543697,E05000136,Haverstock,Unknown,"(51.543697, -0.147793)",34404,04/11/2016 10:29:06 AM,http://opendatacommunities.org/id/london-borough-council/camden
0105EO40145,CAMDEN,SOUTHAMPTON ROW J/W VERNON PLACE,3 Slight,3,2,09/03/2005 08:15:00 AM,Wednesday,8.15,3 Bor,A,4200,6 Single Cwy,2 30 MPH,6 Crossroads,2 Auto Sig,A,401,5 Pedn Phase At Ats,1 Daylight,1 Fine,1 Road-Dry,0 None,0 None,530450,181670,-0.121268,51.518905,E05000138,Holborn and Covent Garden,Unknown,"(51.518905, -0.121268)",34403,04/11/2016 10:29:06 AM,http://opendatacommunities.org/id/london-borough-council/camden
0105EO40146,CAMDEN,EUSTON ROAD J.W GOWER STREET,3 Slight,1,2,02/03/2005 07:45:00 PM,Wednesday,19.45,1 TLRN,B,522,2 One-Way St,2 30 MPH,5 Slip Road,4 Give Way/Uncontrolled,A,501,1 Zebra,2 Dark,2 Raining,2 Road-Wet,0 None,0 None,529400,182370,-0.136136,51.525437,E05000129,Bloomsbury,Unknown,"(51.525437, -0.136136)",34402,04/11/2016 10:29:06 AM,http://opendatacommunities.org/id/london-borough-council/camden
0105EO40148,CAMDEN,NFL EUSTON ROAD 40M SOUTH WEST J/W ARGYLE STREET,3 Slight,1,1,02/03/2005 09:07:00 PM,Wednesday,21.07,1 TLRN,A,501,3 Dual Cwy,2 30 MPH,0 No Jun In 20m,-2 Not Applicable,-2 Not Applicable,0,0 No Xing Facility In 50m,2 Dark,3 Snowing,2 Road-Wet,0 None,0 None,530170,182850,-0.124866,51.529574,E05000141,King's Cross,Unknown,"(51.529574, -0.124866)",34401,04/11/2016 10:29:06 AM,http://opendatacommunities.org/id/london-borough-council/camden
0105EO40156,CAMDEN,AVENUE ROAD J/W ST EDMUND'S TERRACE,3 Slight,2,2,05/03/2005 04:15:00 PM,Saturday ,16.15,3 Bor,B,525,6 Single Cwy,2 30 MPH,6 Crossroads,4 Give Way/Uncontrolled,B,525,0 No Xing Facility In 50m,1 Daylight,2 Raining,2 Road-Wet,0 None,0 None,527370,183470,-0.164984,51.535784,,,Unknown,"(51.535784, -0.164984)",34400,04/11/2016 10:29:06 AM,http://opendatacommunities.org/id/london-borough-council/camden
0105EO40158,CAMDEN,SPANIARDS ROAD 288M S J/W WINNINGTON ROAD,3 Slight,1,2,01/03/2005 06:30:00 PM,Tuesday  ,18.30,3 Bor,B,519,6 Single Cwy,2 30 MPH,8 Priv Drive,4 Give Way/Uncontrolled,Unclassified,0,0 No Xing Facility In 50m,2 Dark,2 Raining,2 Road-Wet,0 None,0 None,526590,187130,-0.174908,51.568851,E05000135,Hampstead Town,Unknown,"(51.568851, -0.174908)",34399,04/11/2016 10:29:06 AM,http://opendatacommunities.org/id/london-borough-council/camden
0105EO40160,CAMDEN,CLERKENWELL ROAD J/W EYRE STREET HILL,3 Slight,1,2,08/03/2005 01:34:00 PM,Tuesday  ,13.34,3 Bor,A,5201,6 Single Cwy,2 30 MPH,3 T/Stag Jun,4 Give Way/Uncontrolled,Unclassified,0,0 No Xing Facility In 50m,1 Daylight,1 Fine,1 Road-Dry,0 None,0 None,531200,182040,-0.110328,51.522057,E05000138,Holborn and Covent Garden,Unknown,"(51.522057, -0.110328)",34398,04/11/2016 10:29:06 AM,http://opendatacommunities.org/id/london-borough-council/camden
0105EO40161,CAMDEN,NFL FITZJOHN'S AVENUE 40M NW J/W PRINCE ARTHUR ROAD,3 Slight,1,2,16/03/2005 01:27:00 PM,Wednesday,13.27,3 Bor,B,511,6 Single Cwy,2 30 MPH,0 No Jun In 20m,-2 Not Applicable,-2 Not Applicable,0,0 No Xing Facility In 50m,1 Daylight,1 Fine,1 Road-Dry,0 None,0 None,526430,185540,-0.177787,51.554598,E05000133,Frognal and Fitzjohns,Unknown,"(51.554598, -0.177787)",34397,04/11/2016 10:29:06 AM,http://opendatacommunities.org/id/london-borough-council/camden
0105EO40163,CAMDEN,NFL SPANIARDS ROAD 56M SW J/W SPANIARDS END,2 Serious,1,3,10/03/2005 11:25:00 AM,Thursday ,11.25,3 Bor,B,519,6 Single Cwy,2 30 MPH,0 No Jun In 20m,-2 Not Applicable,-2 Not Applicable,0,0 No Xing Facility In 50m,1 Daylight,2 Raining,2 Road-Wet,0 None,0 None,526570,187090,-0.175211,51.568496,E05000135,Hampstead Town,Unknown,"(51.568496, -0.175211)",34396,04/11/2016 10:29:06 AM,http://opendatacommunities.org/id/london-borough-council/camden
0105EO40165,CAMDEN,NFL FINCHLEY ROAD 24 M NW J/W WEST END LANE,3 Slight,1,1,12/03/2005 06:15:00 PM,Saturday ,18.15,1 TLRN,A,41,6 Single Cwy,2 30 MPH,3 T/Stag Jun,4 Give Way/Uncontrolled,C,0,0 No Xing Facility In 50m,1 Daylight,1 Fine,1 Road-Dry,0 None,0 None,525680,185320,-0.188678,51.552788,E05000145,West Hampstead,Unknown,"(51.552788, -0.188678)",34395,04/11/2016 10:29:06 AM,http://opendatacommunities.org/id/london-borough-council/camden
0105EO40166,CAMDEN,NFL YORK WAY 69M N J/W BREWERY ROAD,3 Slight,1,1,14/03/2005 08:30:00 AM,Monday   ,8.30,3 Bor,A,5200,6 Single Cwy,2 30 MPH,0 No Jun In 20m,-2 Not Applicable,-2 Not Applicable,0,0 No Xing Facility In 50m,1 Daylight,5 Raining/High Winds,2 Road-Wet,6 Oil Or Diesel,0 None,530030,184470,-0.126285,51.544165,E05000131,Cantelowes,Unknown,"(51.544165, -0.126285)",34394,04/11/2016 10:29:06 AM,http://opendatacommunities.org/id/london-borough-council/camden
0105EO40167,CAMDEN,NFL FINCHLEY ROAD 105M SE J/W CANNON HILL,3 Slight,1,2,15/03/2005 01:57:00 PM,Tuesday  ,13.57,1 TLRN,A,41,6 Single Cwy,2 30 MPH,0 No Jun In 20m,-2 Not Applicable,-2 Not Applicable,0,0 No Xing Facility In 50m,1 Daylight,1 Fine,1 Road-Dry,0 None,0 None,525590,185400,-0.189947,51.553527,E05000132,Fortune Green,Unknown,"(51.553527, -0.189947)",34393,04/11/2016 10:29:06 AM,http://opendatacommunities.org/id/london-borough-council/camden
0105EO40170,CAMDEN,GREAT RUSSELL STREET/MONTAGUE STREET,3 Slight,1,3,16/03/2005 08:40:00 AM,Wednesday,8.40,3 Bor,C,0,6 Single Cwy,2 30 MPH,3 T/Stag Jun,4 Give Way/Uncontrolled,C,0,1 Zebra,1 Daylight,1 Fine,1 Road-Dry,0 None,0 None,530220,181660,-0.124585,51.518869,E05000138,Holborn and Covent Garden,Unknown,"(51.518869, -0.124585)",34392,04/11/2016 10:29:06 AM,http://opendatacommunities.org/id/london-borough-council/camden
0105EO40171,CAMDEN,V1 REVERSED INTO PED,3 Slight,1,1,16/03/2005 02:57:00 PM,Wednesday,14.57,3 Bor,Unclassified,0,6 Single Cwy,2 30 MPH,0 No Jun In 20m,-2 Not Applicable,-2 Not Applicable,0,0 No Xing Facility In 50m,1 Daylight,1 Fine,1 Road-Dry,0 None,0 None,526180,184140,-0.181893,51.542072,E05000144,Swiss Cottage,Unknown,"(51.542072, -0.181893)",34391,04/11/2016 10:29:06 AM,http://opendatacommunities.org/id/london-borough-council/camden
0105EO40172,CAMDEN,FINCHLEY ROAD 62M N J/W GREEN ROAD,3 Slight,1,1,11/03/2005 01:50:00 PM,Friday   ,13.50,1 TLRN,A,41,6 Single Cwy,2 30 MPH,0 No Jun In 20m,-2 Not Applicable,-2 Not Applicable,0,5 Pedn Phase At Ats,1 Daylight,1 Fine,1 Road-Dry,0 None,0 None,525150,185910,-0.196108,51.558208,E05000132,Fortune Green,Unknown,"(51.558208, -0.196108)",34390,04/11/2016 10:29:06 AM,http://opendatacommunities.org/id/london-borough-council/camden
0105EO40174,CAMDEN,NFL KENTISH TOWN ROAD J/W LEIGHTON ROAD,3 Slight,1,2,16/03/2005 08:00:00 AM,Wednesday,8.00,3 Bor,A,400,2 One-Way St,2 30 MPH,6 Crossroads,2 Auto Sig,C,0,5 Pedn Phase At Ats,1 Daylight,1 Fine,1 Road-Dry,0 None,0 None,529010,185200,-0.140719,51.550959,E05000139,Kentish Town,Unknown,"(51.550959, -0.140719)",34389,04/11/2016 10:29:06 AM,http://opendatacommunities.org/id/london-borough-council/camden
0105EO40175,CAMDEN,THEOBOLD'S ROAD J/W LAMB'S CONDUIT STREET,3 Slight,1,2,06/02/2005 05:09:00 AM,Sunday   ,5.09,3 Bor,A,401,6 Single Cwy,2 30 MPH,6 Crossroads,2 Auto Sig,C,0,5 Pedn Phase At Ats,2 Dark,1 Fine,1 Road-Dry,0 None,0 None,530690,181840,-0.117748,51.520378,E05000138,Holborn and Covent Garden,Unknown,"(51.520378, -0.117748)",34388,04/11/2016 10:29:06 AM,http://opendatacommunities.org/id/london-borough-council/camden
0105EO40177,CAMDEN,NFL NORTH GOWER STREET J/W EUSTON STREET,3 Slight,1,3,14/03/2005 12:25:00 PM,Monday   ,12.25,3 Bor,B,522,6 Single Cwy,2 30 MPH,3 T/Stag Jun,4 Give Way/Uncontrolled,Unclassified,0,0 No Xing Facility In 50m,1 Daylight,1 Fine,1 Road-Dry,0 None,0 None,529350,182470,-0.13682,51.526348,E05000142,Regent's Park,Unknown,"(51.526348, -0.13682)",34387,04/11/2016 10:29:06 AM,http://opendatacommunities.org/id/london-borough-council/camden
0105EO40178,CAMDEN,TOTTENHAM COURT ROAD J/W MAPLE STREET,3 Slight,1,2,15/03/2005 04:04:00 PM,Tuesday  ,16.04,3 Bor,A,400,2 One-Way St,2 30 MPH,6 Crossroads,2 Auto Sig,A,400,5 Pedn Phase At Ats,1 Daylight,1 Fine,1 Road-Dry,0 None,0 None,529360,182090,-0.136815,51.52293,E05000129,Bloomsbury,Unknown,"(51.52293, -0.136815)",34386,04/11/2016 10:29:06 AM,http://opendatacommunities.org/id/london-borough-council/camden
0105EO40179,CAMDEN,GREAT RUSSELL STREET J/W BLOOMSBURY STREET,3 Slight,1,1,21/03/2005 03:20:00 PM,Monday   ,15.20,3 Bor,C,0,6 Single Cwy,2 30 MPH,3 T/Stag Jun,2 Auto Sig,C,0,5 Pedn Phase At Ats,1 Daylight,1 Fine,1 Road-Dry,0 None,0 None,530120,181590,-0.126051,51.518263,E05000138,Holborn and Covent Garden,Unknown,"(51.518263, -0.126051)",34385,04/11/2016 10:29:06 AM,http://opendatacommunities.org/id/london-borough-council/camden
0105EO40181,CAMDEN,HIGH HOLBORN J/W DRURY LANE,2 Serious,1,1,21/03/2005 08:11:00 PM,Monday   ,20.11,3 Bor,A,40,6 Single Cwy,2 30 MPH,3 T/Stag Jun,2 Auto Sig,C,0,0 No Xing Facility In 50m,2 Dark,1 Fine,1 Road-Dry,0 None,0 None,530220,181360,-0.124696,51.516173,E05000138,Holborn and Covent Garden,Unknown,"(51.516173, -0.124696)",34384,04/11/2016 10:29:06 AM,http://opendatacommunities.org/id/london-borough-council/camden
0105EO40185,CAMDEN,ST PANCRAS WAY J/W COLLEGE GROVE,3 Slight,1,2,23/03/2005 03:40:00 PM,Wednesday,15.40,3 Bor,A,5202,2 One-Way St,2 30 MPH,3 T/Stag Jun,4 Give Way/Uncontrolled,Unclassified,0,0 No Xing Facility In 50m,1 Daylight,1 Fine,1 Road-Dry,0 None,0 None,529560,183780,-0.133313,51.538072,E05000143,St Pancras and Somers Town,Unknown,"(51.538072, -0.133313)",34383,04/11/2016 10:29:06 AM,http://opendatacommunities.org/id/london-borough-council/camden
0105EO40188,CAMDEN,NFL BEDFORD PLACE 50 M N J/W RUSSELL SQUARE,3 Slight,1,2,07/03/2005 08:15:00 PM,Monday   ,20.15,3 Bor,Unclassified,0,3 Dual Cwy,2 30 MPH,0 No Jun In 20m,-2 Not Applicable,-2 Not Applicable,0,0 No Xing Facility In 50m,2 Dark,2 Raining,2 Road-Wet,0 None,0 None,530190,181850,-0.124947,51.520583,E05000129,Bloomsbury,Unknown,"(51.520583, -0.124947)",34382,04/11/2016 10:29:06 AM,http://opendatacommunities.org/id/london-borough-council/camden
0105EO40191,CAMDEN,NFL RHYL STREET 21M E J/W BASSETT STREET,2 Serious,1,1,24/03/2005 08:50:00 AM,Thursday ,8.50,3 Bor,Unclassified,0,6 Single Cwy,2 30 MPH,0 No Jun In 20m,-2 Not Applicable,-2 Not Applicable,0,0 No Xing Facility In 50m,1 Daylight,1 Fine,1 Road-Dry,0 None,0 None,528280,184830,-0.151376,51.5478,E05000136,Haverstock,Unknown,"(51.5478, -0.151376)",34381,04/11/2016 10:29:06 AM,http://opendatacommunities.org/id/london-borough-council/camden
0105EO40203,CAMDEN,TOTTENHAM COURT ROAD J/W MAPLE STREET,3 Slight,1,2,29/03/2005 10:16:00 PM,Tuesday  ,22.16,3 Bor,A,400,2 One-Way St,2 30 MPH,6 Crossroads,2 Auto Sig,A,400,5 Pedn Phase At Ats,2 Dark,2 Raining,2 Road-Wet,0 None,0 None,529370,182090,-0.136671,51.522928,E05000129,Bloomsbury,Unknown,"(51.522928, -0.136671)",34380,04/11/2016 10:29:06 AM,http://opendatacommunities.org/id/london-borough-council/camden
0105EO40214,CAMDEN,NEW OXFORD STREET J/W BLOOMSBURY STREET,3 Slight,1,1,31/03/2005 01:14:00 AM,Thursday ,1.14,3 Bor,A,40,6 Single Cwy,2 30 MPH,6 Crossroads,2 Auto Sig,A,400,5 Pedn Phase At Ats,2 Dark,1 Fine,1 Road-Dry,0 None,0 None,530040,181430,-0.127263,51.516843,E05000138,Holborn and Covent Garden,Unknown,"(51.516843, -0.127263)",34379,04/11/2016 10:29:06 AM,http://opendatacommunities.org/id/london-borough-council/camden
0105EO40218,CAMDEN,BLOOMSBURY WAY J/W BLOOMSBURY SQUARE,3 Slight,1,1,30/03/2005 12:52:00 PM,Wednesday,12.52,3 Bor,A,40,2 One-Way St,2 30 MPH,3 T/Stag Jun,2 Auto Sig,Unclassified,0,5 Pedn Phase At Ats,1 Daylight,1 Fine,1 Road-Dry,0 None,0 None,530330,181590,-0.123026,51.518214,E05000138,Holborn and Covent Garden,Unknown,"(51.518214, -0.123026)",34378,04/11/2016 10:29:06 AM,http://opendatacommunities.org/id/london-borough-council/camden
0105EO40223,CAMDEN,NFL CAMDEN HIGH STREET 58 M NE J/W CAMDEN LOCK PLACE,2 Serious,1,1,01/04/2005 03:50:00 PM,Friday   ,15.50,3 Bor,A,502,2 One-Way St,2 30 MPH,0 No Jun In 20m,-2 Not Applicable,-2 Not Applicable,0,0 No Xing Facility In 50m,1 Daylight,1 Fine,1 Road-Dry,0 None,0 None,528720,184120,-0.145294,51.541319,E05000130,Camden Town with Primrose Hill,Unknown,"(51.541319, -0.145294)",34377,04/11/2016 10:29:06 AM,http://opendatacommunities.org/id/london-borough-council/camden
0105EO40224,CAMDEN,HILLFIELD ROAD 25M NE J/W ALDRED ROAD,3 Slight,2,2,13/04/2005 05:41:00 PM,Wednesday,17.41,3 Bor,Unclassified,0,6 Single Cwy,2 30 MPH,0 No Jun In 20m,-2 Not Applicable,-2 Not Applicable,0,0 No Xing Facility In 50m,1 Daylight,1 Fine,1 Road-Dry,0 None,0 None,525140,185350,-0.196451,51.553178,E05000132,Fortune Green,Unknown,"(51.553178, -0.196451)",34376,04/11/2016 10:29:06 AM,http://opendatacommunities.org/id/london-borough-council/camden
0105EO40228,CAMDEN,FINCHLEY ROAD J/W GOLDHURST TERRACE,3 Slight,1,2,04/04/2005 02:20:00 PM,Monday   ,14.20,1 TLRN,A,41,3 Dual Cwy,2 30 MPH,3 T/Stag Jun,2 Auto Sig,Unclassified,0,5 Pedn Phase At Ats,1 Daylight,1 Fine,1 Road-Dry,0 None,0 None,526370,184590,-0.178993,51.546074,E05000144,Swiss Cottage,Unknown,"(51.546074, -0.178993)",34375,04/11/2016 10:29:06 AM,http://opendatacommunities.org/id/london-borough-council/camden
0105EO40229,CAMDEN,KENTISH TOWN ROAD  J/W REGIS ROAD,3 Slight,1,2,09/04/2005 09:13:00 AM,Saturday ,9.13,3 Bor,A,400,6 Single Cwy,2 30 MPH,6 Crossroads,2 Auto Sig,C,0,0 No Xing Facility In 50m,1 Daylight,1 Fine,1 Road-Dry,0 None,0 None,529010,185190,-0.140722,51.550869,E05000139,Kentish Town,Unknown,"(51.550869, -0.140722)",34374,04/11/2016 10:29:06 AM,http://opendatacommunities.org/id/london-borough-council/camden
0105EO40230,CAMDEN,FITZJOHN'S AVENUE J/W MARESFIELD GARDENS,3 Slight,1,2,30/03/2005 03:39:00 PM,Wednesday,15.39,3 Bor,B,511,6 Single Cwy,2 30 MPH,3 T/Stag Jun,4 Give Way/Uncontrolled,Unclassified,0,0 No Xing Facility In 50m,1 Daylight,1 Fine,1 Road-Dry,0 None,0 None,526580,184630,-0.175952,51.546386,E05000133,Frognal and Fitzjohns,Unknown,"(51.546386, -0.175952)",34373,04/11/2016 10:29:06 AM,http://opendatacommunities.org/id/london-borough-council/camden
0105EO40231,CAMDEN,HAMPSTEAD ROAD J/W LIDLINGTON PLACE,3 Slight,1,2,29/03/2005 04:35:00 PM,Tuesday  ,16.35,1 TLRN,A,400,6 Single Cwy,2 30 MPH,3 T/Stag Jun,4 Give Way/Uncontrolled,A,400,0 No Xing Facility In 50m,1 Daylight,1 Fine,2 Road-Wet,0 None,0 None,529160,183150,-0.139308,51.532502,E05000142,Regent's Park,Unknown,"(51.532502, -0.139308)",34372,04/11/2016 10:29:06 AM,http://opendatacommunities.org/id/london-borough-council/camden
0105EO40234,CAMDEN,KENTISH TOWN ROAD J/W FARRIER STREET,3 Slight,1,2,24/03/2005 10:00:00 AM,Thursday ,10.00,3 Bor,A,400,6 Single Cwy,2 30 MPH,9 Other Jun,4 Give Way/Uncontrolled,Unclassified,0,0 No Xing Facility In 50m,1 Daylight,1 Fine,1 Road-Dry,0 None,0 None,528960,184390,-0.141736,51.543691,E05000130,Camden Town with Primrose Hill,Unknown,"(51.543691, -0.141736)",34371,04/11/2016 10:29:06 AM,http://opendatacommunities.org/id/london-borough-council/camden
0105EO40237,CAMDEN,NFL EUSTON ROAD 76M W J/W EUSTON SQUARE,3 Slight,4,2,16/03/2005 11:36:00 AM,Wednesday,11.36,1 TLRN,A,501,6 Single Cwy,2 30 MPH,0 No Jun In 20m,-2 Not Applicable,-2 Not Applicable,0,0 No Xing Facility In 50m,1 Daylight,1 Fine,1 Road-Dry,0 None,0 None,529500,182440,-0.13467,51.526044,E05000142,Regent's Park,Unknown,"(51.526044, -0.13467)",34370,04/11/2016 10:29:06 AM,http://opendatacommunities.org/id/london-borough-council/camden
0105EO40239,CAMDEN,GRAY INN ROAD J/W CALTHORPE STREET,3 Slight,1,2,15/04/2005 08:45:00 AM,Friday   ,8.45,3 Bor,A,5200,6 Single Cwy,2 30 MPH,6 Crossroads,2 Auto Sig,B,502,5 Pedn Phase At Ats,1 Daylight,1 Fine,1 Road-Dry,0 None,0 None,530800,182280,-0.116001,51.524306,E05000138,Holborn and Covent Garden,Unknown,"(51.524306, -0.116001)",34368,04/11/2016 10:29:06 AM,http://opendatacommunities.org/id/london-borough-council/camden
0105EO40240,CAMDEN,NFL CAMDEN HIGH STREET 27 M S J/W CROWNDALE ROAD,3 Slight,1,1,07/04/2005 03:47:00 PM,Thursday ,15.47,1 TLRN,A,4200,2 One-Way St,2 30 MPH,3 T/Stag Jun,2 Auto Sig,A,502,5 Pedn Phase At Ats,1 Daylight,2 Raining,2 Road-Wet,0 None,0 None,529190,183390,-0.138788,51.534652,E05000142,Regent's Park,Unknown,"(51.534652, -0.138788)",34367,04/11/2016 10:29:06 AM,http://opendatacommunities.org/id/london-borough-council/camden
0105EO40241,CAMDEN,KING HENRY'S ROAD J/W ELSWORTHY RISE,3 Slight,1,2,10/04/2005 06:47:00 PM,Sunday   ,18.47,3 Bor,Unclassified,0,6 Single Cwy,2 30 MPH,6 Crossroads,4 Give Way/Uncontrolled,Unclassified,0,0 No Xing Facility In 50m,1 Daylight,1 Fine,1 Road-Dry,0 None,0 None,527380,184180,-0.164584,51.542162,E05000144,Swiss Cottage,Unknown,"(51.542162, -0.164584)",34366,04/11/2016 10:29:06 AM,http://opendatacommunities.org/id/london-borough-council/camden
0105EO40242,CAMDEN,TOTTENHAM COURT ROAD J/W CHENIES STREET,3 Slight,1,1,10/04/2005 10:12:00 PM,Sunday   ,22.12,3 Bor,A,400,2 One-Way St,2 30 MPH,9 Other Jun,2 Auto Sig,B,506,5 Pedn Phase At Ats,2 Dark,1 Fine,1 Road-Dry,0 None,0 None,529550,181800,-0.134185,51.520281,E05000129,Bloomsbury,Unknown,"(51.520281, -0.134185)",34365,04/11/2016 10:29:06 AM,http://opendatacommunities.org/id/london-borough-council/camden
0105EO40243,CAMDEN,HAMPSTEAD ROAD J/W DRUMMOND STREET,2 Serious,1,2,09/04/2005 01:40:00 PM,Saturday ,13.40,1 TLRN,A,400,6 Single Cwy,2 30 MPH,6 Crossroads,2 Auto Sig,A,400,0 No Xing Facility In 50m,1 Daylight,1 Fine,1 Road-Dry,0 None,0 None,529220,182480,-0.138689,51.526467,E05000142,Regent's Park,Unknown,"(51.526467, -0.138689)",34364,04/11/2016 10:29:06 AM,http://opendatacommunities.org/id/london-borough-council/camden
